"BusinessId","Business","Address1","Address2","City","County","State","Zip","PhonePrimary","URL","MailAddress","MailCity","MailState","MailZip","Email","Profiles","DateStamp","LastUpdated","fullAddress","lon","lat"
4303000,"24 Express Food Store","4007 Mount Vernon Ave","","Alexandria","Alexandria","Virginia",22305,"7038367779","","4007 Mount Vernon Ave","Alexandria","Virginia",22305,"","Food Retailer","Jan 10 2017 09:06:30:000PM","Jan 10 2017 09:06:30:000PM","4007 Mount Vernon Ave Alexandria Virginia 22305",-77.0634395,38.8427312
4303048,"4 Mile Run Mobil","4154 S Four Mile Run Dr","","Arlington","Arlington","Virginia",22206,"7038457600","http://Exxonmobilstations.Com","4154 S Four Mile Run Dr","Arlington","Virginia",22206,"","Food Retailer","Jan 10 2017 09:06:38:000PM","Jan 10 2017 09:06:38:000PM","4154 S Four Mile Run Dr Arlington Virginia 22206",-77.0990735,38.8486322
4303067,"5 Twelve Store","4116 Dale Blvd","","Woodbridge","Prince William","Virginia",22193,"7037305979","","4116 Dale Blvd","Woodbridge","Virginia",22193,"","Food Retailer","Jan 10 2017 09:06:40:000PM","Jan 10 2017 09:06:40:000PM","4116 Dale Blvd Woodbridge Virginia 22193",-77.3342933,38.6428185
4303090,"7 Market","1551 Featherstone Rd","","Woodbridge","Prince William","Virginia",22191,"7034921265","","1551 Featherstone Rd","Woodbridge","Virginia",22191,"","Food Retailer","Jan 10 2017 09:06:43:000PM","Jan 10 2017 09:06:43:000PM","1551 Featherstone Rd Woodbridge Virginia 22191",-77.2649854,38.6335977
4303641,"7-Eleven","207 W Shirley Ave","","Warrenton","Fauquier","Virginia",20186,"5403479350","http://7-Eleven.Com","207 W Shirley Ave","Warrenton","Virginia",20186,"","Food Retailer","Jan 10 2017 09:08:13:000PM","Jan 10 2017 09:08:13:000PM","207 W Shirley Ave Warrenton Virginia 20186",-77.8048075,38.7128424
4303642,"7-Eleven","5059 Lee Hwy","","Warrenton","Fauquier","Virginia",20187,"5403475044","http://7-Eleven.Com","5059 Lee Hwy","Warrenton","Virginia",20187,"","Food Retailer","Jan 10 2017 09:08:13:000PM","Jan 10 2017 09:08:13:000PM","5059 Lee Hwy Warrenton Virginia 20187",-77.7119195,38.7670074
4303643,"7-Eleven","7325 Comfort Inn Dr","","Warrenton","Fauquier","Virginia",20187,"5403477880","http://7-Eleven.Com","7325 Comfort Inn Dr","Warrenton","Virginia",20187,"","Food Retailer","Jan 10 2017 09:08:13:000PM","Jan 10 2017 09:08:13:000PM","7325 Comfort Inn Dr Warrenton Virginia 20187",-77.7726095,38.731959
4303323,"7-Eleven","1111 Elden St","","Herndon","Fairfax","Virginia",20170,"7036893601","http://7-Eleven.Com","1111 Elden St","Herndon","Virginia",20170,"","Food Retailer","Jan 10 2017 09:07:19:000PM","Jan 10 2017 09:07:19:000PM","1111 Elden St Herndon Virginia 20170",-77.397013,38.9647958
4303324,"7-Eleven","1115 Crestview Dr","","Herndon","Fairfax","Virginia",20170,"7036893604","http://7-Eleven.Com","1115 Crestview Dr","Herndon","Virginia",20170,"","Food Retailer","Jan 10 2017 09:07:19:000PM","Jan 10 2017 09:07:19:000PM","1115 Crestview Dr Herndon Virginia 20170",-77.3989637,38.9808378
4303325,"7-Eleven","11501 Leesburg Pike","","Herndon","Fairfax","Virginia",20170,"7034500248","http://7-Eleven.Com","11501 Leesburg Pike","Herndon","Virginia",20170,"","Food Retailer","Jan 10 2017 09:07:19:000PM","Jan 10 2017 09:07:19:000PM","11501 Leesburg Pike Herndon Virginia 20170",-77.3436142,38.9988393
4303326,"7-Eleven","13190 Parcher Ave","","Herndon","Fairfax","Virginia",20170,"7036893602","http://7-Eleven.Com","13190 Parcher Ave","Herndon","Virginia",20170,"","Food Retailer","Jan 10 2017 09:07:19:000PM","Jan 10 2017 09:07:19:000PM","13190 Parcher Ave Herndon Virginia 20170",-77.4027977,38.9603314
4303327,"7-Eleven","150 Elden St # 160","","Herndon","Fairfax","Virginia",20170,"7034375192","http://7-Eleven.Com","150 Elden St # 160","Herndon","Virginia",20170,"","Food Retailer","Jan 10 2017 09:07:20:000PM","Jan 10 2017 09:07:20:000PM","150 Elden St  160 Herndon Virginia 20170",-77.3675245,38.9670855
4303328,"7-Eleven","2501-014 Mcnair Farms Dr","","Herndon","Fairfax","Virginia",20171,"7037133869","http://7-Eleven.Com","2501-014 Mcnair Farms Dr","Herndon","Virginia",20171,"","Food Retailer","Jan 10 2017 09:07:20:000PM","Jan 10 2017 09:07:20:000PM","2501014 Mcnair Farms Dr Herndon Virginia 20171",-77.4108616,38.9495867
4303329,"7-Eleven","701 Van Buren St","","Herndon","Fairfax","Virginia",20170,"5712039618","http://7-Eleven.Com","701 Van Buren St","Herndon","Virginia",20170,"","Food Retailer","Jan 10 2017 09:07:20:000PM","Jan 10 2017 09:07:20:000PM","701 Van Buren St Herndon Virginia 20170",-77.3816306,38.9681289
4303340,"7-Eleven","8228 Gunston Corner Ln","","Lorton","Fairfax","Virginia",22079,"7036902463","http://7-Eleven.Com","8228 Gunston Corner Ln","Lorton","Virginia",22079,"","Food Retailer","Jan 10 2017 09:07:21:000PM","Jan 10 2017 09:07:21:000PM","8228 Gunston Corner Ln Lorton Virginia 22079",-77.2288912,38.7055922
4303341,"7-Eleven","9402 Richmond Hwy","","Lorton","Fairfax","Virginia",22079,"7033396896","http://7-Eleven.Com","9402 Richmond Hwy","Lorton","Virginia",22079,"","Food Retailer","Jan 10 2017 09:07:22:000PM","Jan 10 2017 09:07:22:000PM","9402 Richmond Hwy Lorton Virginia 22079",-77.2093142,38.7024459
4303342,"7-Eleven","9804 Gunston Rd","","Lorton","Fairfax","Virginia",22079,"7033396895","http://7-Eleven.Com","9804 Gunston Rd","Lorton","Virginia",22079,"","Food Retailer","Jan 10 2017 09:07:22:000PM","Jan 10 2017 09:07:22:000PM","9804 Gunston Rd Lorton Virginia 22079",-77.2179067,38.6922329
4303251,"7-Eleven","3011 Patrick Henry Dr","","Falls Church","Fairfax","Virginia",22044,"7035382855","http://7-Eleven.Com","3011 Patrick Henry Dr","Falls Church","Virginia",22044,"","Food Retailer","Jan 10 2017 09:07:07:000PM","Jan 10 2017 09:07:07:000PM","3011 Patrick Henry Dr Falls Church Virginia 22044",-77.1470558,38.8674671
4303252,"7-Eleven","3019 Annandale Rd","","Falls Church","Fairfax","Virginia",22042,"7035382858","http://7-Eleven.Com","3019 Annandale Rd","Falls Church","Virginia",22042,"","Food Retailer","Jan 10 2017 09:07:07:000PM","Jan 10 2017 09:07:07:000PM","3019 Annandale Rd Falls Church Virginia 22042",-77.1742635,38.8685489
4303253,"7-Eleven","3337 Glen Carlyn Dr","","Falls Church","Fairfax","Virginia",22041,"7035786068","http://7-Eleven.Com","3337 Glen Carlyn Dr","Falls Church","Virginia",22041,"","Food Retailer","Jan 10 2017 09:07:07:000PM","Jan 10 2017 09:07:07:000PM","3337 Glen Carlyn Dr Falls Church Virginia 22041",-77.1378654,38.8542917
4303254,"7-Eleven","3420 Carlin Springs Rd","","Falls Church","Fairfax","Virginia",22041,"7035786063","http://7-Eleven.Com","3420 Carlin Springs Rd","Falls Church","Virginia",22041,"","Food Retailer","Jan 10 2017 09:07:07:000PM","Jan 10 2017 09:07:07:000PM","3420 Carlin Springs Rd Falls Church Virginia 22041",-77.123775,38.8506904
4303255,"7-Eleven","3827 S George Mason Dr","","Falls Church","Fairfax","Virginia",22041,"7035786069","http://7-Eleven.Com","3827 S George Mason Dr","Falls Church","Virginia",22041,"","Food Retailer","Jan 10 2017 09:07:08:000PM","Jan 10 2017 09:07:08:000PM","3827 S George Mason Dr Falls Church Virginia 22041",-77.1208084,38.8406369
4303256,"7-Eleven","7222 Arlington Blvd","","Falls Church","Fairfax","Virginia",22042,"7038768926","http://7-Eleven.Com","7222 Arlington Blvd","Falls Church","Virginia",22042,"","Food Retailer","Jan 10 2017 09:07:08:000PM","Jan 10 2017 09:07:08:000PM","7222 Arlington Blvd Falls Church Virginia 22042",-77.1941921,38.8670371
4303257,"7-Eleven","7243 Arlington Blvd","","Falls Church","Fairfax","Virginia",22042,"7038768924","http://7-Eleven.Com","7243 Arlington Blvd","Falls Church","Virginia",22042,"","Food Retailer","Jan 10 2017 09:07:08:000PM","Jan 10 2017 09:07:08:000PM","7243 Arlington Blvd Falls Church Virginia 22042",-77.1962661,38.8646538
4303258,"7-Eleven","7451 Patterson Rd","","Falls Church","Fairfax","Virginia",22043,"7038831711","http://7-Eleven.Com","7451 Patterson Rd","Falls Church","Virginia",22043,"","Food Retailer","Jan 10 2017 09:07:08:000PM","Jan 10 2017 09:07:08:000PM","7451 Patterson Rd Falls Church Virginia 22043",-77.2031833,38.9044713
4303259,"7-Eleven","7461 Lee Hwy","","Falls Church","Fairfax","Virginia",22042,"7038768925","http://7-Eleven.Com","7461 Lee Hwy","Falls Church","Virginia",22042,"","Food Retailer","Jan 10 2017 09:07:08:000PM","Jan 10 2017 09:07:08:000PM","7461 Lee Hwy Falls Church Virginia 22042",-77.2010606,38.875282
4303281,"7-Eleven","9908 Grgtn Pke","","Great Falls","Fairfax","Virginia",22066,"7037595788","http://7-Eleven.Com","9908 Grgtn Pke","Great Falls","Virginia",22066,"","Food Retailer","Jan 10 2017 09:07:12:000PM","Jan 10 2017 09:07:12:000PM","9908 Grgtn Pke Great Falls Virginia 22066",-77.2895218,38.9986887
4303161,"7-Eleven","13990 Metrotech Dr","","Chantilly","Fairfax","Virginia",20151,"7033781362","http://7-Eleven.Com","13990 Metrotech Dr","Chantilly","Virginia",20151,"","Food Retailer","Jan 10 2017 09:06:54:000PM","Jan 10 2017 09:06:54:000PM","13990 Metrotech Dr Chantilly Virginia 20151",-77.4282873,38.8964389
4303162,"7-Eleven","14515 Lee Jackson Memorial Hwy","","Chantilly","Fairfax","Virginia",20151,"7033788345","http://7-Eleven.Com","14515 Lee Jackson Memorial Hwy","Chantilly","Virginia",20151,"","Food Retailer","Jan 10 2017 09:06:54:000PM","Jan 10 2017 09:06:54:000PM","14515 Lee Jackson Memorial Hwy Chantilly Virginia 20151",-77.4499344,38.9010502
4303163,"7-Eleven","14533 Lee Rd","","Chantilly","Fairfax","Virginia",20151,"7033781350","http://7-Eleven.Com","14533 Lee Rd","Chantilly","Virginia",20151,"","Food Retailer","Jan 10 2017 09:06:54:000PM","Jan 10 2017 09:06:54:000PM","14533 Lee Rd Chantilly Virginia 20151",-77.4481908,38.8941869
4303238,"7-Eleven","2242 Gallows Rd","","Dunn Loring","Fairfax","Virginia",22027,"7038768927","http://7-Eleven.Com","2242 Gallows Rd","Dunn Loring","Virginia",22027,"","Food Retailer","Jan 10 2017 09:07:05:000PM","Jan 10 2017 09:07:05:000PM","2242 Gallows Rd Dunn Loring Virginia 22027",-77.2248652,38.8982421
4303352,"7-Eleven","1357 Chain Bridge Rd","","McLean","Fairfax","Virginia",22101,"7038831710","http://7-Eleven.Com","1357 Chain Bridge Rd","McLean","Virginia",22101,"","Food Retailer","Jan 10 2017 09:07:24:000PM","Jan 10 2017 09:07:24:000PM","1357 Chain Bridge Rd McLean Virginia 22101",-77.1751396,38.9373934
4303353,"7-Eleven","1436 Chain Bridge Rd","","McLean","Fairfax","Virginia",22101,"7038933571","http://7-Eleven.Com","1436 Chain Bridge Rd","McLean","Virginia",22101,"","Food Retailer","Jan 10 2017 09:07:24:000PM","Jan 10 2017 09:07:24:000PM","1436 Chain Bridge Rd McLean Virginia 22101",-77.178307,38.9337134
4303354,"7-Eleven","6720 Old Dominion Dr","","McLean","Fairfax","Virginia",22101,"7033561133","http://7-Eleven.Com","6720 Old Dominion Dr","McLean","Virginia",22101,"","Food Retailer","Jan 10 2017 09:07:24:000PM","Jan 10 2017 09:07:24:000PM","6720 Old Dominion Dr McLean Virginia 22101",-77.1762403,38.9339649
4303355,"7-Eleven","8110 Old Dominion Dr","","McLean","Fairfax","Virginia",22102,"7038831712","http://7-Eleven.Com","8110 Old Dominion Dr","McLean","Virginia",22102,"","Food Retailer","Jan 10 2017 09:07:24:000PM","Jan 10 2017 09:07:24:000PM","8110 Old Dominion Dr McLean Virginia 22102",-77.2253143,38.9525952
4303453,"7-Eleven","2973 Chain Bridge Rd","","Oakton","Fairfax","Virginia",22124,"7032559303","http://7-Eleven.Com","2973 Chain Bridge Rd","Oakton","Virginia",22124,"","Food Retailer","Jan 10 2017 09:07:41:000PM","Jan 10 2017 09:07:41:000PM","2973 Chain Bridge Rd Oakton Virginia 22124",-77.3027805,38.8792363
4303475,"7-Eleven","11714 Sunset Hills Rd","","Reston","Fairfax","Virginia",20190,"7036893605","http://7-Eleven.Com","11714 Sunset Hills Rd","Reston","Virginia",20190,"","Food Retailer","Jan 10 2017 09:07:44:000PM","Jan 10 2017 09:07:44:000PM","11714 Sunset Hills Rd Reston Virginia 20190",-77.3523625,38.9553913
4303476,"7-Eleven","2303 Soapstone Dr # C","","Reston","Fairfax","Virginia",20191,"7032645024","http://7-Eleven.Com","2303 Soapstone Dr # C","Reston","Virginia",20191,"","Food Retailer","Jan 10 2017 09:07:44:000PM","Jan 10 2017 09:07:44:000PM","2303 Soapstone Dr  C Reston Virginia 20191",-77.3457771,38.9307965
4303519,"7-Eleven","6221 Rolling Rd","","Springfield","Fairfax","Virginia",22152,"7038660906","http://7-Eleven.Com","6221 Rolling Rd","Springfield","Virginia",22152,"","Food Retailer","Jan 10 2017 09:07:51:000PM","Jan 10 2017 09:07:51:000PM","6221 Rolling Rd Springfield Virginia 22152",-77.2336223,38.7813777
4303520,"7-Eleven","6225 Backlick Rd","","Springfield","Fairfax","Virginia",22150,"7038660902","http://7-Eleven.Com","6225 Backlick Rd","Springfield","Virginia",22150,"","Food Retailer","Jan 10 2017 09:07:51:000PM","Jan 10 2017 09:07:51:000PM","6225 Backlick Rd Springfield Virginia 22150",-77.1851358,38.7827806
4303521,"7-Eleven","6691 Backlick Rd","","Springfield","Fairfax","Virginia",22150,"7034511827","http://7-Eleven.Com","6691 Backlick Rd","Springfield","Virginia",22150,"","Food Retailer","Jan 10 2017 09:07:51:000PM","Jan 10 2017 09:07:51:000PM","6691 Backlick Rd Springfield Virginia 22150",-77.1833388,38.7728471
4303522,"7-Eleven","7029 Brookfield Plz","","Springfield","Fairfax","Virginia",22150,"7034516449","http://7-Eleven.Com","7029 Brookfield Plz","Springfield","Virginia",22150,"","Food Retailer","Jan 10 2017 09:07:51:000PM","Jan 10 2017 09:07:51:000PM","7029 Brookfield Plz Springfield Virginia 22150",-77.1846393,38.7736086
4303523,"7-Eleven","7225 Old Keene Mill Rd","","Springfield","Fairfax","Virginia",22150,"7035697492","http://7-Eleven.Com","7225 Old Keene Mill Rd","Springfield","Virginia",22150,"","Food Retailer","Jan 10 2017 09:07:52:000PM","Jan 10 2017 09:07:52:000PM","7225 Old Keene Mill Rd Springfield Virginia 22150",-77.1944574,38.7771588
4303524,"7-Eleven","7907 Rolling Rd","","Springfield","Fairfax","Virginia",22153,"7038660903","http://7-Eleven.Com","7907 Rolling Rd","Springfield","Virginia",22153,"","Food Retailer","Jan 10 2017 09:07:52:000PM","Jan 10 2017 09:07:52:000PM","7907 Rolling Rd Springfield Virginia 22153",-77.2111894,38.7430236
4303525,"7-Eleven","8017 Braddock Rd","","Springfield","Fairfax","Virginia",22151,"7034252982","http://7-Eleven.Com","8017 Braddock Rd","Springfield","Virginia",22151,"","Food Retailer","Jan 10 2017 09:07:52:000PM","Jan 10 2017 09:07:52:000PM","8017 Braddock Rd Springfield Virginia 22151",-77.2233017,38.8104401
4303526,"7-Eleven","8071 Alban Rd","","Springfield","Fairfax","Virginia",22150,"7034400137","http://7-Eleven.Com","8071 Alban Rd","Springfield","Virginia",22150,"","Food Retailer","Jan 10 2017 09:07:52:000PM","Jan 10 2017 09:07:52:000PM","8071 Alban Rd Springfield Virginia 22150",-77.1929974,38.7382294
4303527,"7-Eleven","8314 Hooes Rd","","Springfield","Fairfax","Virginia",22152,"7038660900","http://7-Eleven.Com","8314 Hooes Rd","Springfield","Virginia",22152,"","Food Retailer","Jan 10 2017 09:07:52:000PM","Jan 10 2017 09:07:52:000PM","8314 Hooes Rd Springfield Virginia 22152",-77.2329846,38.7565615
4303528,"7-Eleven","8319 Old Keene Mill Rd","","Springfield","Fairfax","Virginia",22152,"7038660904","http://7-Eleven.Com","8319 Old Keene Mill Rd","Springfield","Virginia",22152,"","Food Retailer","Jan 10 2017 09:07:52:000PM","Jan 10 2017 09:07:52:000PM","8319 Old Keene Mill Rd Springfield Virginia 22152",-77.2325895,38.7788901
4303561,"7-Eleven","10508 Leesburg Pike # 10671","","Vienna","Fairfax","Virginia",22182,"7037595833","http://7-Eleven.Com","10508 Leesburg Pike # 10671","Vienna","Virginia",22182,"","Food Retailer","Jan 10 2017 09:07:58:000PM","Jan 10 2017 09:07:58:000PM","10508 Leesburg Pike  10671 Vienna Virginia 22182",-77.3092249,38.9763028
4303562,"7-Eleven","1931 Old Gallows Rd","","Vienna","Fairfax","Virginia",22182,"7038831713","http://7-Eleven.Com","1931 Old Gallows Rd","Vienna","Virginia",22182,"","Food Retailer","Jan 10 2017 09:07:59:000PM","Jan 10 2017 09:07:59:000PM","1931 Old Gallows Rd Vienna Virginia 22182",-77.221618,38.9116391
4303563,"7-Eleven","427 Maple Ave","","Vienna","Fairfax","Virginia",22180,"7032559302","http://7-Eleven.Com","427 Maple Ave","Vienna","Virginia",22180,"","Food Retailer","Jan 10 2017 09:07:59:000PM","Jan 10 2017 09:07:59:000PM","427 Maple Ave Vienna Virginia 22180",-77.2734811,38.8956474
4303564,"7-Eleven","537 Maple Ave W","","Vienna","Fairfax","Virginia",22180,"7032559301","http://7-Eleven.Com","537 Maple Ave W","Vienna","Virginia",22180,"","Food Retailer","Jan 10 2017 09:07:59:000PM","Jan 10 2017 09:07:59:000PM","537 Maple Ave W Vienna Virginia 22180",-77.2753905,38.8941127
4303565,"7-Eleven","8391 Leesburg Pike","","Vienna","Fairfax","Virginia",22182,"7037600979","http://7-Eleven.Com","8391 Leesburg Pike","Vienna","Virginia",22182,"","Food Retailer","Jan 10 2017 09:07:59:000PM","Jan 10 2017 09:07:59:000PM","8391 Leesburg Pike Vienna Virginia 22182",-77.2373261,38.9226786
4303566,"7-Eleven","8616 Park St","","Vienna","Fairfax","Virginia",22180,"7038768921","http://7-Eleven.Com","8616 Park St","Vienna","Virginia",22180,"","Food Retailer","Jan 10 2017 09:07:59:000PM","Jan 10 2017 09:07:59:000PM","8616 Park St Vienna Virginia 22180",-77.2428278,38.8887864
4303145,"7-Eleven","11021 Marsh Rd","","Bealeton","Fauquier","Virginia",22712,"5404392510","http://7-Eleven.Com","11021 Marsh Rd","Bealeton","Virginia",22712,"","Food Retailer","Jan 10 2017 09:06:51:000PM","Jan 10 2017 09:06:51:000PM","11021 Marsh Rd Bealeton Virginia 22712",-77.7669108,38.5825855
4303146,"7-Eleven","11022 Marsh Rd","","Bealeton","Fauquier","Virginia",22712,"5404392944","http://7-Eleven.Com","11022 Marsh Rd","Bealeton","Virginia",22712,"","Food Retailer","Jan 10 2017 09:06:51:000PM","Jan 10 2017 09:06:51:000PM","11022 Marsh Rd Bealeton Virginia 22712",-77.7683858,38.582297
4303351,"7-Eleven","8324 W Main St","","Marshall","Fauquier","Virginia",20115,"5403641669","http://7-Eleven.Com","8324 W Main St","Marshall","Virginia",20115,"","Food Retailer","Jan 10 2017 09:07:24:000PM","Jan 10 2017 09:07:24:000PM","8324 W Main St Marshall Virginia 20115",-77.8552865,38.8665898
4303159,"7-Eleven","13305 Lee Hwy","","Centreville","Fairfax","Virginia",20121,"7038303010","http://7-Eleven.Com","13305 Lee Hwy","Centreville","Virginia",20121,"","Food Retailer","Jan 10 2017 09:06:53:000PM","Jan 10 2017 09:06:53:000PM","13305 Lee Hwy Centreville Virginia 20121",-77.4053185,38.8396781
4303160,"7-Eleven","13830 Lee Hwy # 1","","Centreville","Fairfax","Virginia",20120,"7038188657","http://7-Eleven.Com","13830 Lee Hwy # 1","Centreville","Virginia",20120,"","Food Retailer","Jan 10 2017 09:06:54:000PM","Jan 10 2017 09:06:54:000PM","13830 Lee Hwy  1 Centreville Virginia 20120",-77.4261366,38.8397699
4303156,"7-Eleven","6030 Burke Commons Rd # L2","","Burke","Fairfax","Virginia",22015,"7032505470","http://7-Eleven.Com","6030 Burke Commons Rd # L2","Burke","Virginia",22015,"","Food Retailer","Jan 10 2017 09:06:53:000PM","Jan 10 2017 09:06:53:000PM","6030 Burke Commons Rd  L2 Burke Virginia 22015",-77.2996837,38.788003
4303157,"7-Eleven","6311 Lee Chapel Rd","","Burke","Fairfax","Virginia",22015,"7038660901","http://7-Eleven.Com","6311 Lee Chapel Rd","Burke","Virginia",22015,"","Food Retailer","Jan 10 2017 09:06:53:000PM","Jan 10 2017 09:06:53:000PM","6311 Lee Chapel Rd Burke Virginia 22015",-77.2764554,38.7803153
4303158,"7-Eleven","9413-A Burke Lake Rd","","Burke","Fairfax","Virginia",22015,"7034252981","http://7-Eleven.Com","9413-A Burke Lake Rd","Burke","Virginia",22015,"","Food Retailer","Jan 10 2017 09:06:53:000PM","Jan 10 2017 09:06:53:000PM","9413A Burke Lake Rd Burke Virginia 22015",-77.2731694,38.7935
4303108,"7-Eleven","3338 Gallows Rd","","Annandale","Fairfax","Virginia",22003,"7038768923","http://7-Eleven.Com","3338 Gallows Rd","Annandale","Virginia",22003,"","Food Retailer","Jan 10 2017 09:06:45:000PM","Jan 10 2017 09:06:45:000PM","3338 Gallows Rd Annandale Virginia 22003",-77.2220359,38.8541478
4303109,"7-Eleven","4131 Hummer Rd","","Annandale","Fairfax","Virginia",22003,"7036581905","http://7-Eleven.Com","4131 Hummer Rd","Annandale","Virginia",22003,"","Food Retailer","Jan 10 2017 09:06:46:000PM","Jan 10 2017 09:06:46:000PM","4131 Hummer Rd Annandale Virginia 22003",-77.2103136,38.8331979
4303110,"7-Eleven","4209 Annandale Rd","","Annandale","Fairfax","Virginia",22003,"7036581903","http://7-Eleven.Com","4209 Annandale Rd","Annandale","Virginia",22003,"","Food Retailer","Jan 10 2017 09:06:46:000PM","Jan 10 2017 09:06:46:000PM","4209 Annandale Rd Annandale Virginia 22003",-77.1965462,38.8326954
4303111,"7-Eleven","6910i Braddock Rd","","Annandale","Fairfax","Virginia",22003,"7036581902","http://7-Eleven.Com","6910i Braddock Rd","Annandale","Virginia",22003,"","Food Retailer","Jan 10 2017 09:06:46:000PM","Jan 10 2017 09:06:46:000PM","6910i Braddock Rd Annandale Virginia 22003",-77.1838852,38.812258
4303112,"7-Eleven","7822 Rectory Ln","","Annandale","Fairfax","Virginia",22003,"7036581907","http://7-Eleven.Com","7822 Rectory Ln","Annandale","Virginia",22003,"","Food Retailer","Jan 10 2017 09:06:46:000PM","Jan 10 2017 09:06:46:000PM","7822 Rectory Ln Annandale Virginia 22003",-77.214391,38.8256968
4303113,"7-Eleven","1131 S George Mason Dr","","Arlington","Arlington","Virginia",22204,"7037693763","http://7-Eleven.Com","1131 S George Mason Dr","Arlington","Virginia",22204,"","Food Retailer","Jan 10 2017 09:06:46:000PM","Jan 10 2017 09:06:46:000PM","1131 S George Mason Dr Arlington Virginia 22204",-77.1004758,38.8583951
4303114,"7-Eleven","1500 S Fern St # 1","","Arlington","Arlington","Virginia",22202,"7037693762","http://7-Eleven.Com","1500 S Fern St # 1","Arlington","Virginia",22202,"","Food Retailer","Jan 10 2017 09:06:47:000PM","Jan 10 2017 09:06:47:000PM","1500 S Fern St  1 Arlington Virginia 22202",-77.0565735,38.8590129
4303115,"7-Eleven","1625 Wilson Blvd","","Arlington","Arlington","Virginia",22209,"7033120405","http://7-Eleven.Com","1625 Wilson Blvd","Arlington","Virginia",22209,"","Food Retailer","Jan 10 2017 09:06:47:000PM","Jan 10 2017 09:06:47:000PM","1625 Wilson Blvd Arlington Virginia 22209",-77.0781015,38.8944925
4303116,"7-Eleven","17 S Carlin Springs Rd","","Arlington","Arlington","Virginia",22204,"7035786062","http://7-Eleven.Com","17 S Carlin Springs Rd","Arlington","Virginia",22204,"","Food Retailer","Jan 10 2017 09:06:47:000PM","Jan 10 2017 09:06:47:000PM","17 S Carlin Springs Rd Arlington Virginia 22204",-77.1281574,38.865419
4303117,"7-Eleven","2001 Clarendon Blvd # 1","","Arlington","Arlington","Virginia",22201,"7032944128","http://7-Eleven.Com","2001 Clarendon Blvd # 1","Arlington","Virginia",22201,"","Food Retailer","Jan 10 2017 09:06:47:000PM","Jan 10 2017 09:06:47:000PM","2001 Clarendon Blvd  1 Arlington Virginia 22201",-77.0822112,38.8919597
4303118,"7-Eleven","201 S Glebe Rd","","Arlington","Arlington","Virginia",22204,"7032710646","http://7-Eleven.Com","201 S Glebe Rd","Arlington","Virginia",22204,"","Food Retailer","Jan 10 2017 09:06:47:000PM","Jan 10 2017 09:06:47:000PM","201 S Glebe Rd Arlington Virginia 22204",-77.0972752,38.8683522
4303119,"7-Eleven","2311 2nd St S","","Arlington","Arlington","Virginia",22204,"7037693765","http://7-Eleven.Com","2311 2nd St S","Arlington","Virginia",22204,"","Food Retailer","Jan 10 2017 09:06:47:000PM","Jan 10 2017 09:06:47:000PM","2311 2nd St S Arlington Virginia 22204",-77.0841917,38.8719065
4303120,"7-Eleven","2525 Lee Hwy","","Arlington","Arlington","Virginia",22201,"7032434733","http://7-Eleven.Com","2525 Lee Hwy","Arlington","Virginia",22201,"","Food Retailer","Jan 10 2017 09:06:47:000PM","Jan 10 2017 09:06:47:000PM","2525 Lee Hwy Arlington Virginia 22201",-77.0909853,38.8950952
4303121,"7-Eleven","2704 Washington Blvd","","Arlington","Arlington","Virginia",22201,"7032434731","http://7-Eleven.Com","2704 Washington Blvd","Arlington","Virginia",22201,"","Food Retailer","Jan 10 2017 09:06:48:000PM","Jan 10 2017 09:06:48:000PM","2704 Washington Blvd Arlington Virginia 22201",-77.090239,38.8796708
4303122,"7-Eleven","2815 S Wakefield St","","Arlington","Arlington","Virginia",22206,"7035786066","http://7-Eleven.Com","2815 S Wakefield St","Arlington","Virginia",22206,"","Food Retailer","Jan 10 2017 09:06:48:000PM","Jan 10 2017 09:06:48:000PM","2815 S Wakefield St Arlington Virginia 22206",-77.0977697,38.8441879
4303123,"7-Eleven","2906 N Sycamore St","","Arlington","Arlington","Virginia",22207,"7035345837","http://7-Eleven.Com","2906 N Sycamore St","Arlington","Virginia",22207,"","Food Retailer","Jan 10 2017 09:06:48:000PM","Jan 10 2017 09:06:48:000PM","2906 N Sycamore St Arlington Virginia 22207",-77.1572566,38.8994021
4303124,"7-Eleven","3000 Washington Blvd # E","","Arlington","Arlington","Virginia",22201,"7033125105","http://7-Eleven.Com","3000 Washington Blvd # E","Arlington","Virginia",22201,"","Food Retailer","Jan 10 2017 09:06:48:000PM","Jan 10 2017 09:06:48:000PM","3000 Washington Blvd  E Arlington Virginia 22201",-77.094173,38.8848288
4303125,"7-Eleven","3003 Columbia Pike","","Arlington","Arlington","Virginia",22204,"7037693760","http://7-Eleven.Com","3003 Columbia Pike","Arlington","Virginia",22204,"","Food Retailer","Jan 10 2017 09:06:48:000PM","Jan 10 2017 09:06:48:000PM","3003 Columbia Pike Arlington Virginia 22204",-77.0882063,38.8626876
4303126,"7-Eleven","3461 Washington Blvd # 200","","Arlington","Arlington","Virginia",22201,"7035281457","http://7-Eleven.Com","3461 Washington Blvd # 200","Arlington","Virginia",22201,"","Food Retailer","Jan 10 2017 09:06:48:000PM","Jan 10 2017 09:06:48:000PM","3461 Washington Blvd  200 Arlington Virginia 22201",-77.1030354,38.8864387
4303127,"7-Eleven","3503 Fairfax Dr # 100","","Arlington","Arlington","Virginia",22201,"7032489113","http://7-Eleven.Com","3503 Fairfax Dr # 100","Arlington","Virginia",22201,"","Food Retailer","Jan 10 2017 09:06:49:000PM","Jan 10 2017 09:06:49:000PM","3503 Fairfax Dr  100 Arlington Virginia 22201",-77.1030191,38.8837611
4303128,"7-Eleven","3510 Wilson Blvd","","Arlington","Arlington","Virginia",22201,"7032434734","http://7-Eleven.Com","3510 Wilson Blvd","Arlington","Virginia",22201,"","Food Retailer","Jan 10 2017 09:06:49:000PM","Jan 10 2017 09:06:49:000PM","3510 Wilson Blvd Arlington Virginia 22201",-77.1012484,38.8822259
4303129,"7-Eleven","3600 Columbia Pike","","Arlington","Arlington","Virginia",22204,"7037693764","http://7-Eleven.Com","3600 Columbia Pike","Arlington","Virginia",22204,"","Food Retailer","Jan 10 2017 09:06:49:000PM","Jan 10 2017 09:06:49:000PM","3600 Columbia Pike Arlington Virginia 22204",-77.0940157,38.860377
4303130,"7-Eleven","3901 Lee Hwy","","Arlington","Arlington","Virginia",22207,"7032434735","http://7-Eleven.Com","3901 Lee Hwy","Arlington","Virginia",22207,"","Food Retailer","Jan 10 2017 09:06:49:000PM","Jan 10 2017 09:06:49:000PM","3901 Lee Hwy Arlington Virginia 22207",-77.1073004,38.8971369
4303131,"7-Eleven","4223 Fairfax Dr","","Arlington","Arlington","Virginia",22203,"7033121084","http://7-Eleven.Com","4223 Fairfax Dr","Arlington","Virginia",22203,"","Food Retailer","Jan 10 2017 09:06:49:000PM","Jan 10 2017 09:06:49:000PM","4223 Fairfax Dr Arlington Virginia 22203",-77.1115035,38.8825322
4303132,"7-Eleven","426 23rd St S","","Arlington","Arlington","Virginia",22202,"7039798793","http://7-Eleven.Com","426 23rd St S","Arlington","Virginia",22202,"","Food Retailer","Jan 10 2017 09:06:49:000PM","Jan 10 2017 09:06:49:000PM","426 23rd St S Arlington Virginia 22202",-77.0532272,38.8530999
4303133,"7-Eleven","4505 Lee Hwy","","Arlington","Arlington","Virginia",22207,"7032434436","http://7-Eleven.Com","4505 Lee Hwy","Arlington","Virginia",22207,"","Food Retailer","Jan 10 2017 09:06:50:000PM","Jan 10 2017 09:06:50:000PM","4505 Lee Hwy Arlington Virginia 22207",-77.1186958,38.8987923
4303134,"7-Eleven","4689 King St","","Arlington","Arlington","Virginia",22206,"7035786061","http://7-Eleven.Com","4689 King St","Arlington","Virginia",22206,"","Food Retailer","Jan 10 2017 09:06:50:000PM","Jan 10 2017 09:06:50:000PM","4689 King St Arlington Virginia 22206",-77.1084896,38.8430096
4303135,"7-Eleven","4970 Columbia Pike","","Arlington","Arlington","Virginia",22204,"7035786064","http://7-Eleven.Com","4970 Columbia Pike","Arlington","Virginia",22204,"","Food Retailer","Jan 10 2017 09:06:50:000PM","Jan 10 2017 09:06:50:000PM","4970 Columbia Pike Arlington Virginia 22204",-77.111345,38.8558298
4303136,"7-Eleven","5030 Lee Hwy","","Arlington","Arlington","Virginia",22207,"7035325424","http://7-Eleven.Com","5030 Lee Hwy","Arlington","Virginia",22207,"","Food Retailer","Jan 10 2017 09:06:50:000PM","Jan 10 2017 09:06:50:000PM","5030 Lee Hwy Arlington Virginia 22207",-77.1298878,38.8960685
4303137,"7-Eleven","5122 Wilson Blvd","","Arlington","Arlington","Virginia",22205,"7032434737","http://7-Eleven.Com","5122 Wilson Blvd","Arlington","Virginia",22205,"","Food Retailer","Jan 10 2017 09:06:50:000PM","Jan 10 2017 09:06:50:000PM","5122 Wilson Blvd Arlington Virginia 22205",-77.1226063,38.8774691
4303138,"7-Eleven","5267 Lee Hwy","","Arlington","Arlington","Virginia",22207,"7035382857","http://7-Eleven.Com","5267 Lee Hwy","Arlington","Virginia",22207,"","Food Retailer","Jan 10 2017 09:06:50:000PM","Jan 10 2017 09:06:50:000PM","5267 Lee Hwy Arlington Virginia 22207",-77.1341126,38.8965803
4303139,"7-Eleven","6730 Lee Hwy","","Arlington","Arlington","Virginia",22205,"7032415505","http://7-Eleven.Com","6730 Lee Hwy","Arlington","Virginia",22205,"","Food Retailer","Jan 10 2017 09:06:50:000PM","Jan 10 2017 09:06:50:000PM","6730 Lee Hwy Arlington Virginia 22205",-77.1601999,38.8882275
4303404,"7-Eleven","13050 Nokesville Rd","","Nokesville","Prince William","Virginia",20181,"7035943212","http://7-Eleven.Com","PO Box 155","Nokesville","Virginia",20182,"","Food Retailer","Jan 10 2017 09:07:32:000PM","Jan 10 2017 09:07:32:000PM","13050 Nokesville Rd Nokesville Virginia 20181",-77.5844188,38.6992812
4303559,"7-Eleven","18750 Fuller Heights Rd","","Triangle","Prince William","Virginia",22172,"7034410681","http://7-Eleven.Com","18750 Fuller Heights Rd","Triangle","Virginia",22172,"","Food Retailer","Jan 10 2017 09:07:58:000PM","Jan 10 2017 09:07:58:000PM","18750 Fuller Heights Rd Triangle Virginia 22172",-77.3317919,38.5444818
4303662,"7-Eleven","12520 Gordon Blvd","","Woodbridge","Prince William","Virginia",22192,"7034946708","http://7-Eleven.Com","12520 Gordon Blvd","Woodbridge","Virginia",22192,"","Food Retailer","Jan 10 2017 09:08:16:000PM","Jan 10 2017 09:08:16:000PM","12520 Gordon Blvd Woodbridge Virginia 22192",-77.2581836,38.6784935
4303663,"7-Eleven","13131 Hillendale Dr","","Woodbridge","Prince William","Virginia",22193,"7035903332","http://7-Eleven.Com","13131 Hillendale Dr","Woodbridge","Virginia",22193,"","Food Retailer","Jan 10 2017 09:08:16:000PM","Jan 10 2017 09:08:16:000PM","13131 Hillendale Dr Woodbridge Virginia 22193",-77.3340802,38.6659252
4303664,"7-Eleven","13304 Occoquan Rd","","Woodbridge","Prince William","Virginia",22191,"7034947373","http://7-Eleven.Com","13304 Occoquan Rd","Woodbridge","Virginia",22191,"","Food Retailer","Jan 10 2017 09:08:17:000PM","Jan 10 2017 09:08:17:000PM","13304 Occoquan Rd Woodbridge Virginia 22191",-77.2541204,38.6635186
4303665,"7-Eleven","13360 Minnieville Rd","","Woodbridge","Prince William","Virginia",22192,"7038978887","http://7-Eleven.Com","13360 Minnieville Rd","Woodbridge","Virginia",22192,"","Food Retailer","Jan 10 2017 09:08:17:000PM","Jan 10 2017 09:08:17:000PM","13360 Minnieville Rd Woodbridge Virginia 22192",-77.302601,38.6585397
4303666,"7-Eleven","13897 Telegraph Rd","","Woodbridge","Prince William","Virginia",22192,"7034902444","http://7-Eleven.Com","13897 Telegraph Rd","Woodbridge","Virginia",22192,"","Food Retailer","Jan 10 2017 09:08:17:000PM","Jan 10 2017 09:08:17:000PM","13897 Telegraph Rd Woodbridge Virginia 22192",-77.2894792,38.6506148
4303667,"7-Eleven","13940 Jefferson Davis Hwy","","Woodbridge","Prince William","Virginia",22191,"7034946008","http://7-Eleven.Com","13940 Jefferson Davis Hwy","Woodbridge","Virginia",22191,"","Food Retailer","Jan 10 2017 09:08:17:000PM","Jan 10 2017 09:08:17:000PM","13940 Jefferson Davis Hwy Woodbridge Virginia 22191",-77.2573306,38.6520839
4303668,"7-Eleven","14116 Minnieville Rd","","Woodbridge","Prince William","Virginia",22193,"7036802946","http://7-Eleven.Com","14116 Minnieville Rd","Woodbridge","Virginia",22193,"","Food Retailer","Jan 10 2017 09:08:17:000PM","Jan 10 2017 09:08:17:000PM","14116 Minnieville Rd Woodbridge Virginia 22193",-77.3352019,38.6471012
4303669,"7-Eleven","14400 Gideon Dr","","Woodbridge","Prince William","Virginia",22192,"7034912679","http://7-Eleven.Com","14400 Gideon Dr","Woodbridge","Virginia",22192,"","Food Retailer","Jan 10 2017 09:08:17:000PM","Jan 10 2017 09:08:17:000PM","14400 Gideon Dr Woodbridge Virginia 22192",-77.2960717,38.6400707
4303670,"7-Eleven","14410 Minnieville Rd","","Woodbridge","Prince William","Virginia",22193,"7036707009","http://7-Eleven.Com","14410 Minnieville Rd","Woodbridge","Virginia",22193,"","Food Retailer","Jan 10 2017 09:08:18:000PM","Jan 10 2017 09:08:18:000PM","14410 Minnieville Rd Woodbridge Virginia 22193",-77.3532366,38.6361331
4303671,"7-Eleven","1445 Old Bridge Rd","","Woodbridge","Prince William","Virginia",22192,"7034945775","http://7-Eleven.Com","1445 Old Bridge Rd","Woodbridge","Virginia",22192,"","Food Retailer","Jan 10 2017 09:08:18:000PM","Jan 10 2017 09:08:18:000PM","1445 Old Bridge Rd Woodbridge Virginia 22192",-77.2612142,38.6725219
4303672,"7-Eleven","14517 Jefferson Davis Hwy","","Woodbridge","Prince William","Virginia",22191,"7034945006","http://7-Eleven.Com","14517 Jefferson Davis Hwy","Woodbridge","Virginia",22191,"","Food Retailer","Jan 10 2017 09:08:18:000PM","Jan 10 2017 09:08:18:000PM","14517 Jefferson Davis Hwy Woodbridge Virginia 22191",-77.268759,38.6368471
4303673,"7-Eleven","14797 Darbydale Ave","","Woodbridge","Prince William","Virginia",22193,"7036707004","http://7-Eleven.Com","14797 Darbydale Ave","Woodbridge","Virginia",22193,"","Food Retailer","Jan 10 2017 09:08:18:000PM","Jan 10 2017 09:08:18:000PM","14797 Darbydale Ave Woodbridge Virginia 22193",-77.3420888,38.6336017
4303674,"7-Eleven","14820 Cloverdale Rd","","Woodbridge","Prince William","Virginia",22193,"7036707002","http://7-Eleven.Com","14820 Cloverdale Rd","Woodbridge","Virginia",22193,"","Food Retailer","Jan 10 2017 09:08:18:000PM","Jan 10 2017 09:08:18:000PM","14820 Cloverdale Rd Woodbridge Virginia 22193",-77.3235357,38.6291685
4303675,"7-Eleven","15052 Cardinal Dr","","Woodbridge","Prince William","Virginia",22193,"7038782389","http://7-Eleven.Com","15052 Cardinal Dr","Woodbridge","Virginia",22193,"","Food Retailer","Jan 10 2017 09:08:19:000PM","Jan 10 2017 09:08:19:000PM","15052 Cardinal Dr Woodbridge Virginia 22193",-77.3463285,38.6254555
4303676,"7-Eleven","15621 Jefferson Davis Hwy","","Woodbridge","Prince William","Virginia",22191,"7038787674","http://7-Eleven.Com","15621 Jefferson Davis Hwy","Woodbridge","Virginia",22191,"","Food Retailer","Jan 10 2017 09:08:19:000PM","Jan 10 2017 09:08:19:000PM","15621 Jefferson Davis Hwy Woodbridge Virginia 22191",-77.2892933,38.6115735
4303677,"7-Eleven","1701 Featherstone Rd","","Woodbridge","Prince William","Virginia",22191,"7034912077","http://7-Eleven.Com","1701 Featherstone Rd","Woodbridge","Virginia",22191,"","Food Retailer","Jan 10 2017 09:08:19:000PM","Jan 10 2017 09:08:19:000PM","1701 Featherstone Rd Woodbridge Virginia 22191",-77.2658833,38.6338579
4303678,"7-Eleven","2631 Prince William Pkwy","","Woodbridge","Prince William","Virginia",22192,"7034902444","http://7-Eleven.Com","2631 Prince William Pkwy","Woodbridge","Virginia",22192,"","Food Retailer","Jan 10 2017 09:08:19:000PM","Jan 10 2017 09:08:19:000PM","2631 Prince William Pkwy Woodbridge Virginia 22192",-77.2895401,38.650533
4303679,"7-Eleven","4800 Dale Blvd","","Woodbridge","Prince William","Virginia",22193,"7035903550","http://7-Eleven.Com","4800 Dale Blvd","Woodbridge","Virginia",22193,"","Food Retailer","Jan 10 2017 09:08:19:000PM","Jan 10 2017 09:08:19:000PM","4800 Dale Blvd Woodbridge Virginia 22193",-77.3542018,38.6607325
4303680,"7-Eleven","5041 Prince William Pkwy","","Woodbridge","Prince William","Virginia",22192,"7035908882","http://7-Eleven.Com","5041 Prince William Pkwy","Woodbridge","Virginia",22192,"","Food Retailer","Jan 10 2017 09:08:20:000PM","Jan 10 2017 09:08:20:000PM","5041 Prince William Pkwy Woodbridge Virginia 22192",-77.3584858,38.679843
4303681,"7-Eleven","7001 Dale Blvd","","Woodbridge","Prince William","Virginia",22193,"7035806201","http://7-Eleven.Com","7001 Dale Blvd","Woodbridge","Virginia",22193,"","Food Retailer","Jan 10 2017 09:08:20:000PM","Jan 10 2017 09:08:20:000PM","7001 Dale Blvd Woodbridge Virginia 22193",-77.396161,38.6715855
4303231,"7-Eleven","16170 Country Club Dr","","Dumfries","Prince William","Virginia",22025,"7038783809","http://7-Eleven.Com","16170 Country Club Dr","Dumfries","Virginia",22025,"","Food Retailer","Jan 10 2017 09:07:04:000PM","Jan 10 2017 09:07:04:000PM","16170 Country Club Dr Dumfries Virginia 22025",-77.3409223,38.6030601
4303232,"7-Eleven","16176 Country Club Dr","","Dumfries","Prince William","Virginia",22025,"7036702360","http://7-Eleven.Com","16176 Country Club Dr","Dumfries","Virginia",22025,"","Food Retailer","Jan 10 2017 09:07:04:000PM","Jan 10 2017 09:07:04:000PM","16176 Country Club Dr Dumfries Virginia 22025",-77.3404516,38.6024697
4303233,"7-Eleven","16806 Jefferson Davis Hwy","","Dumfries","Prince William","Virginia",22026,"7032210334","http://7-Eleven.Com","16806 Jefferson Davis Hwy","Dumfries","Virginia",22026,"","Food Retailer","Jan 10 2017 09:07:05:000PM","Jan 10 2017 09:07:05:000PM","16806 Jefferson Davis Hwy Dumfries Virginia 22026",-77.3067074,38.5880306
4303234,"7-Eleven","17105 Old Stage Rd","","Dumfries","Prince William","Virginia",22025,"7032216819","http://Exxonmobilstations.Com","17105 Old Stage Rd","Dumfries","Virginia",22025,"","Food Retailer","Jan 10 2017 09:07:05:000PM","Jan 10 2017 09:07:05:000PM","17105 Old Stage Rd Dumfries Virginia 22025",-77.326385,38.5825021
4303235,"7-Eleven","17360 Dumfries Rd # A","","Dumfries","Prince William","Virginia",22026,"7034413218","http://7-Eleven.Com","17360 Dumfries Rd # A","Dumfries","Virginia",22026,"","Food Retailer","Jan 10 2017 09:07:05:000PM","Jan 10 2017 09:07:05:000PM","17360 Dumfries Rd  A Dumfries Virginia 22026",-77.3163164,38.5757184
4303236,"7-Eleven","18075 Fraley Blvd","","Dumfries","Prince William","Virginia",22026,"7032216800","http://7-Eleven.Com","18075 Fraley Blvd","Dumfries","Virginia",22026,"","Food Retailer","Jan 10 2017 09:07:05:000PM","Jan 10 2017 09:07:05:000PM","18075 Fraley Blvd Dumfries Virginia 22026",-77.3306701,38.5601055
4303237,"7-Eleven","4100 Talon Dr","","Dumfries","Prince William","Virginia",22025,"7032215634","http://Mybpstation.Com","4100 Talon Dr","Dumfries","Virginia",22025,"","Food Retailer","Jan 10 2017 09:07:05:000PM","Jan 10 2017 09:07:05:000PM","4100 Talon Dr Dumfries Virginia 22025",-77.3340577,38.5870154
4303272,"7-Eleven","7489 Limestone Dr","","Gainesville","Prince William","Virginia",20155,"7037540318","http://7-Eleven.Com","7489 Limestone Dr","Gainesville","Virginia",20155,"","Food Retailer","Jan 10 2017 09:07:10:000PM","Jan 10 2017 09:07:10:000PM","7489 Limestone Dr Gainesville Virginia 20155",-77.5983639,38.7942152
4303273,"7-Eleven","7501 Webb Dr","","Gainesville","Prince William","Virginia",20155,"5712615064","http://Exxonmobilstations.Com","7501 Webb Dr","Gainesville","Virginia",20155,"","Food Retailer","Jan 10 2017 09:07:10:000PM","Jan 10 2017 09:07:10:000PM","7501 Webb Dr Gainesville Virginia 20155",-77.622579,38.7939143
4303322,"7-Eleven","4075 Sudley Rd","","Haymarket","Prince William","Virginia",20169,"7037544607","http://7-Eleven.Com","4075 Sudley Rd","Haymarket","Virginia",20169,"","Food Retailer","Jan 10 2017 09:07:19:000PM","Jan 10 2017 09:07:19:000PM","4075 Sudley Rd Haymarket Virginia 20169",-77.6346623,38.8711701
4303538,"7-Eleven","113c Edds Ln","","Sterling","Loudoun","Virginia",20165,"7034301622","http://7-Eleven.Com","113c Edds Ln","Sterling","Virginia",20165,"","Food Retailer","Jan 10 2017 09:07:54:000PM","Jan 10 2017 09:07:54:000PM","113c Edds Ln Sterling Virginia 20165",-77.4129539,39.0405929
4303539,"7-Eleven","20955 Davenport Dr # 102","","Sterling","Loudoun","Virginia",20165,"7034301089","http://7-Eleven.Com","20955 Davenport Dr # 102","Sterling","Virginia",20165,"","Food Retailer","Jan 10 2017 09:07:54:000PM","Jan 10 2017 09:07:54:000PM","20955 Davenport Dr  102 Sterling Virginia 20165",-77.4105999,39.0359866
4303540,"7-Eleven","21800 Towncenter Plz # 201","","Sterling","Loudoun","Virginia",20164,"7034449003","http://7-Eleven.Com","21800 Towncenter Plz # 201","Sterling","Virginia",20164,"","Food Retailer","Jan 10 2017 09:07:54:000PM","Jan 10 2017 09:07:54:000PM","21800 Towncenter Plz  201 Sterling Virginia 20164",-77.373196,39.0136463
4303541,"7-Eleven","21944 Cascades Pkwy","","Sterling","Loudoun","Virginia",20164,"7034210125","http://7-Eleven.Com","21944 Cascades Pkwy","Sterling","Virginia",20164,"","Food Retailer","Jan 10 2017 09:07:54:000PM","Jan 10 2017 09:07:54:000PM","21944 Cascades Pkwy Sterling Virginia 20164",-77.4170788,39.0091294
4303542,"7-Eleven","23131 Rock Hill Rd","","Sterling","Loudoun","Virginia",20166,"7034370104","http://7-Eleven.Com","23131 Rock Hill Rd","Sterling","Virginia",20166,"","Food Retailer","Jan 10 2017 09:07:54:000PM","Jan 10 2017 09:07:54:000PM","23131 Rock Hill Rd Sterling Virginia 20166",-77.4097703,38.9764418
4303543,"7-Eleven","46141 Woodshire Dr","","Sterling","Loudoun","Virginia",20166,"5714346298","http://7-Eleven.Com","46141 Woodshire Dr","Sterling","Virginia",20166,"","Food Retailer","Jan 10 2017 09:07:54:000PM","Jan 10 2017 09:07:54:000PM","46141 Woodshire Dr Sterling Virginia 20166",-77.4040308,39.0252265
4303544,"7-Eleven","46651 Algonkian Pkwy","","Sterling","Loudoun","Virginia",20165,"7034304957","http://7-Eleven.Com","46651 Algonkian Pkwy","Sterling","Virginia",20165,"","Food Retailer","Jan 10 2017 09:07:55:000PM","Jan 10 2017 09:07:55:000PM","46651 Algonkian Pkwy Sterling Virginia 20165",-77.3794409,39.0502117
4303545,"7-Eleven","46989 Sugarland Run Dr","","Sterling","Loudoun","Virginia",20164,"7034442007","http://7-Eleven.Com","46989 Sugarland Run Dr","Sterling","Virginia",20164,"","Food Retailer","Jan 10 2017 09:07:55:000PM","Jan 10 2017 09:07:55:000PM","46989 Sugarland Run Dr Sterling Virginia 20164",-77.368019,39.036481
4303546,"7-Eleven","712 W Church Rd","","Sterling","Loudoun","Virginia",20164,"7034441215","http://7-Eleven.Com","712 W Church Rd","Sterling","Virginia",20164,"","Food Retailer","Jan 10 2017 09:07:55:000PM","Jan 10 2017 09:07:55:000PM","712 W Church Rd Sterling Virginia 20164",-77.4135816,39.0074643
4303472,"7-Eleven","610 W Main St","","Purcellville","Loudoun","Virginia",20132,"5403385031","http://7-Eleven.Com","610 W Main St","Purcellville","Virginia",20132,"","Food Retailer","Jan 10 2017 09:07:44:000PM","Jan 10 2017 09:07:44:000PM","610 W Main St Purcellville Virginia 20132",-77.7237695,39.1368916
4303473,"7-Eleven","700 E Main St","","Purcellville","Loudoun","Virginia",20132,"5403389200","http://7-Eleven.Com","700 E Main St","Purcellville","Virginia",20132,"","Food Retailer","Jan 10 2017 09:07:44:000PM","Jan 10 2017 09:07:44:000PM","700 E Main St Purcellville Virginia 20132",-77.7045852,39.1363282
4303343,"7-Eleven","1 E Broad Way","","Lovettsville","Loudoun","Virginia",20180,"5408225609","http://7-Eleven.Com","1 E Broad Way","Lovettsville","Virginia",20180,"","Food Retailer","Jan 10 2017 09:07:22:000PM","Jan 10 2017 09:07:22:000PM","1 E Broad Way Lovettsville Virginia 20180",-77.638108,39.2749897
4303140,"7-Eleven","20630 Ashburn Rd # 107","","Ashburn","Loudoun","Virginia",20147,"7037233806","http://7-Eleven.Com","20630 Ashburn Rd # 107","Ashburn","Virginia",20147,"","Food Retailer","Jan 10 2017 09:06:50:000PM","Jan 10 2017 09:06:50:000PM","20630 Ashburn Rd  107 Ashburn Virginia 20147",-77.4848717,39.0472712
4303141,"7-Eleven","43974 Pipeline Plz","","Ashburn","Loudoun","Virginia",20147,"7037261018","http://7-Eleven.Com","43974 Pipeline Plz","Ashburn","Virginia",20147,"","Food Retailer","Jan 10 2017 09:06:51:000PM","Jan 10 2017 09:06:51:000PM","43974 Pipeline Plz Ashburn Virginia 20147",-77.4792071,39.0217752
4303333,"7-Eleven","110 Dry Mill Rd SW","","Leesburg","Loudoun","Virginia",20175,"7037776816","http://7-Eleven.Com","110 Dry Mill Rd SW","Leesburg","Virginia",20175,"","Food Retailer","Jan 10 2017 09:07:20:000PM","Jan 10 2017 09:07:20:000PM","110 Dry Mill Rd SW Leesburg Virginia 20175",-77.5710317,39.1151302
4303334,"7-Eleven","22 Plaza St NE","","Leesburg","Loudoun","Virginia",20176,"7037776819","http://7-Eleven.Com","22 Plaza St NE","Leesburg","Virginia",20176,"","Food Retailer","Jan 10 2017 09:07:21:000PM","Jan 10 2017 09:07:21:000PM","22 Plaza St NE Leesburg Virginia 20176",-77.5497389,39.1082852
4303335,"7-Eleven","502 S King St","","Leesburg","Loudoun","Virginia",20175,"7037773730","http://7-Eleven.Com","502 S King St","Leesburg","Virginia",20175,"","Food Retailer","Jan 10 2017 09:07:21:000PM","Jan 10 2017 09:07:21:000PM","502 S King St Leesburg Virginia 20175",-77.5679422,39.1073869
4303336,"7-Eleven","503 S King St","","Leesburg","Loudoun","Virginia",20175,"7037776823","http://7-Eleven.Com","503 S King St","Leesburg","Virginia",20175,"","Food Retailer","Jan 10 2017 09:07:21:000PM","Jan 10 2017 09:07:21:000PM","503 S King St Leesburg Virginia 20175",-77.5687258,39.1074914
4303337,"7-Eleven","700 Fieldstone Dr NE # 100","","Leesburg","Loudoun","Virginia",20176,"7037714025","http://7-Eleven.Com","700 Fieldstone Dr NE # 100","Leesburg","Virginia",20176,"","Food Retailer","Jan 10 2017 09:07:21:000PM","Jan 10 2017 09:07:21:000PM","700 Fieldstone Dr NE  100 Leesburg Virginia 20176",-77.5458743,39.1259493
4303249,"7-Eleven","110 N West St","","Falls Church","Falls Church","Virginia",22046,"7035382850","http://7-Eleven.Com","110 N West St","Falls Church","Virginia",22046,"","Food Retailer","Jan 10 2017 09:07:07:000PM","Jan 10 2017 09:07:07:000PM","110 N West St Falls Church Virginia 22046",-77.1836757,38.8911007
4303250,"7-Eleven","201 S Washington St","","Falls Church","Falls Church","Virginia",22046,"7035382854","http://7-Eleven.Com","201 S Washington St","Falls Church","Virginia",22046,"","Food Retailer","Jan 10 2017 09:07:07:000PM","Jan 10 2017 09:07:07:000PM","201 S Washington St Falls Church Virginia 22046",-77.1724663,38.8802369
4303260,"7-Eleven","804 S Washington St","","Falls Church","Falls Church","Virginia",22046,"7035382852","http://7-Eleven.Com","804 S Washington St","Falls Church","Virginia",22046,"","Food Retailer","Jan 10 2017 09:07:08:000PM","Jan 10 2017 09:07:08:000PM","804 S Washington St Falls Church Virginia 22046",-77.1821033,38.8793208
4303241,"7-Eleven","10008 Main St","","Fairfax","Fairfax City","Virginia",22031,"7033593560","http://7-Eleven.Com","10008 Main St","Fairfax","Virginia",22031,"","Food Retailer","Jan 10 2017 09:07:06:000PM","Jan 10 2017 09:07:06:000PM","10008 Main St Fairfax Virginia 22031",-77.2914702,38.8443983
4303242,"7-Eleven","10140 Fairfax Blvd","","Fairfax","Fairfax City","Virginia",22030,"7033854346","http://7-Eleven.Com","10140 Fairfax Blvd","Fairfax","Virginia",22030,"","Food Retailer","Jan 10 2017 09:07:06:000PM","Jan 10 2017 09:07:06:000PM","10140 Fairfax Blvd Fairfax Virginia 22030",-77.2953777,38.8622599
4303243,"7-Eleven","10485 Fairfax Blvd","","Fairfax","Fairfax City","Virginia",22030,"7032188060","http://7-Eleven.Com","10485 Fairfax Blvd","Fairfax","Virginia",22030,"","Food Retailer","Jan 10 2017 09:07:06:000PM","Jan 10 2017 09:07:06:000PM","10485 Fairfax Blvd Fairfax Virginia 22030",-77.307044,38.8581295
4303244,"7-Eleven","10810 Fairchester Dr","","Fairfax","Fairfax City","Virginia",22030,"7033593565","http://7-Eleven.Com","10810 Fairchester Dr","Fairfax","Virginia",22030,"","Food Retailer","Jan 10 2017 09:07:06:000PM","Jan 10 2017 09:07:06:000PM","10810 Fairchester Dr Fairfax Virginia 22030",-77.3181285,38.8548075
4303245,"7-Eleven","10911 Main St","","Fairfax","Fairfax City","Virginia",22030,"7033593559","http://7-Eleven.Com","10911 Main St","Fairfax","Virginia",22030,"","Food Retailer","Jan 10 2017 09:07:06:000PM","Jan 10 2017 09:07:06:000PM","10911 Main St Fairfax Virginia 22030",-77.3222568,38.8516442
4303246,"7-Eleven","3910 University Dr","","Fairfax","Fairfax City","Virginia",22030,"7033593561","http://7-Eleven.Com","3910 University Dr","Fairfax","Virginia",22030,"","Food Retailer","Jan 10 2017 09:07:06:000PM","Jan 10 2017 09:07:06:000PM","3910 University Dr Fairfax Virginia 22030",-77.3050245,38.8485434
4303247,"7-Eleven","3965 Jermantown Rd","","Fairfax","Fairfax City","Virginia",22030,"7033593563","http://7-Eleven.Com","3965 Jermantown Rd","Fairfax","Virginia",22030,"","Food Retailer","Jan 10 2017 09:07:07:000PM","Jan 10 2017 09:07:07:000PM","3965 Jermantown Rd Fairfax Virginia 22030",-77.331231,38.8567295
4303248,"7-Eleven","9617 Fairfax Blvd","","Fairfax","Fairfax City","Virginia",22031,"5714320469","http://7-Eleven.Com","9617 Fairfax Blvd","Fairfax","Virginia",22031,"","Food Retailer","Jan 10 2017 09:07:07:000PM","Jan 10 2017 09:07:07:000PM","9617 Fairfax Blvd Fairfax Virginia 22031",-77.2768594,38.8639052
4303092,"7-Eleven","1025 W Glebe Rd","","Alexandria","Alexandria","Virginia",22305,"7036841946","http://7-Eleven.Com","1025 W Glebe Rd","Alexandria","Virginia",22305,"","Food Retailer","Jan 10 2017 09:06:43:000PM","Jan 10 2017 09:06:43:000PM","1025 W Glebe Rd Alexandria Virginia 22305",-77.0753786,38.8429656
4303093,"7-Eleven","1667 N Quaker Ln","","Alexandria","Alexandria","Virginia",22302,"7035786067","http://7-Eleven.Com","1667 N Quaker Ln","Alexandria","Virginia",22302,"","Food Retailer","Jan 10 2017 09:06:43:000PM","Jan 10 2017 09:06:43:000PM","1667 N Quaker Ln Alexandria Virginia 22302",-77.0848436,38.8315518
4303094,"7-Eleven","2 S Jordan St","","Alexandria","Alexandria","Virginia",22304,"7034611902","http://7-Eleven.Com","2 S Jordan St","Alexandria","Virginia",22304,"","Food Retailer","Jan 10 2017 09:06:43:000PM","Jan 10 2017 09:06:43:000PM","2 S Jordan St Alexandria Virginia 22304",-77.1094357,38.8115175
4303095,"7-Eleven","2002 Eisenhower Ave","","Alexandria","Alexandria","Virginia",22314,"7037065701","http://7-Eleven.Com","2002 Eisenhower Ave","Alexandria","Virginia",22314,"","Food Retailer","Jan 10 2017 09:06:43:000PM","Jan 10 2017 09:06:43:000PM","2002 Eisenhower Ave Alexandria Virginia 22314",-77.06358,38.799983
4303096,"7-Eleven","2108 Mount Vernon Ave","","Alexandria","Alexandria","Virginia",22301,"7036841943","http://7-Eleven.Com","2108 Mount Vernon Ave","Alexandria","Virginia",22301,"","Food Retailer","Jan 10 2017 09:06:44:000PM","Jan 10 2017 09:06:44:000PM","2108 Mount Vernon Ave Alexandria Virginia 22301",-77.0588974,38.825147
4303097,"7-Eleven","30 S Reynolds St","","Alexandria","Alexandria","Virginia",22304,"7034611906","http://7-Eleven.Com","30 S Reynolds St","Alexandria","Virginia",22304,"","Food Retailer","Jan 10 2017 09:06:44:000PM","Jan 10 2017 09:06:44:000PM","30 S Reynolds St Alexandria Virginia 22304",-77.1251909,38.8122926
4303098,"7-Eleven","3023 Duke St","","Alexandria","Alexandria","Virginia",22314,"7034611900","http://7-Eleven.Com","3023 Duke St","Alexandria","Virginia",22314,"","Food Retailer","Jan 10 2017 09:06:44:000PM","Jan 10 2017 09:06:44:000PM","3023 Duke St Alexandria Virginia 22314",-77.0820334,38.8078687
4303099,"7-Eleven","331 S Whiting St","","Alexandria","Alexandria","Virginia",22304,"7034611905","http://7-Eleven.Com","331 S Whiting St","Alexandria","Virginia",22304,"","Food Retailer","Jan 10 2017 09:06:44:000PM","Jan 10 2017 09:06:44:000PM","331 S Whiting St Alexandria Virginia 22304",-77.1366931,38.8099135
4303100,"7-Eleven","3412 Mount Vernon Ave","","Alexandria","Alexandria","Virginia",22305,"7036841945","http://7-Eleven.Com","3412 Mount Vernon Ave","Alexandria","Virginia",22305,"","Food Retailer","Jan 10 2017 09:06:44:000PM","Jan 10 2017 09:06:44:000PM","3412 Mount Vernon Ave Alexandria Virginia 22305",-77.0614592,38.8361058
4303101,"7-Eleven","421 E Braddock Rd","","Alexandria","Alexandria","Virginia",22301,"7036841940","http://7-Eleven.Com","421 E Braddock Rd","Alexandria","Virginia",22301,"","Food Retailer","Jan 10 2017 09:06:44:000PM","Jan 10 2017 09:06:44:000PM","421 E Braddock Rd Alexandria Virginia 22301",-77.0553445,38.8130547
4303102,"7-Eleven","4610 Kenmore Ave","","Alexandria","Alexandria","Virginia",22304,"7034611903","http://7-Eleven.Com","4610 Kenmore Ave","Alexandria","Virginia",22304,"","Food Retailer","Jan 10 2017 09:06:45:000PM","Jan 10 2017 09:06:45:000PM","4610 Kenmore Ave Alexandria Virginia 22304",-77.1097054,38.8287485
4303103,"7-Eleven","4949 Seminary Rd","","Alexandria","Alexandria","Virginia",22311,"7035786060","http://7-Eleven.Com","4949 Seminary Rd","Alexandria","Virginia",22311,"","Food Retailer","Jan 10 2017 09:06:45:000PM","Jan 10 2017 09:06:45:000PM","4949 Seminary Rd Alexandria Virginia 22311",-77.1135938,38.8322169
4303104,"7-Eleven","504 John Carlyle St","","Alexandria","Alexandria","Virginia",22314,"7035180643","http://7-Eleven.Com","504 John Carlyle St","Alexandria","Virginia",22314,"","Food Retailer","Jan 10 2017 09:06:45:000PM","Jan 10 2017 09:06:45:000PM","504 John Carlyle St Alexandria Virginia 22314",-77.0615008,38.80222
4303105,"7-Eleven","5725 Edsall Rd","","Alexandria","Alexandria","Virginia",22304,"7034611904","http://7-Eleven.Com","5725 Edsall Rd","Alexandria","Virginia",22304,"","Food Retailer","Jan 10 2017 09:06:45:000PM","Jan 10 2017 09:06:45:000PM","5725 Edsall Rd Alexandria Virginia 22304",-77.1320002,38.808048
4303106,"7-Eleven","6120 Lincolnia Rd","","Alexandria","Alexandria","Virginia",22312,"7036581904","http://7-Eleven.Com","6120 Lincolnia Rd","Alexandria","Virginia",22312,"","Food Retailer","Jan 10 2017 09:06:45:000PM","Jan 10 2017 09:06:45:000PM","6120 Lincolnia Rd Alexandria Virginia 22312",-77.1381575,38.8180602
4303107,"7-Eleven","800 Franklin St","","Alexandria","Alexandria","Virginia",22314,"7036841941","http://7-Eleven.Com","800 Franklin St","Alexandria","Virginia",22314,"","Food Retailer","Jan 10 2017 09:06:45:000PM","Jan 10 2017 09:06:45:000PM","800 Franklin St Alexandria Virginia 22314",-77.0499026,38.7980148
4303349,"7-Eleven","101 Kent Village Sq","","Manassas Park","Manassas Park","Virginia",20111,"7032570351","http://7-Eleven.Com","101 Kent Village Sq","Manassas Park","Virginia",20111,"","Food Retailer","Jan 10 2017 09:07:23:000PM","Jan 10 2017 09:07:23:000PM","101 Kent Village Sq Manassas Park Virginia 20111",-77.4731101,38.7814812
4303350,"7-Eleven","9101 Andrew Dr","","Manassas Park","Manassas Park","Virginia",20111,"7033937345","http://7-Eleven.Com","9101 Andrew Dr","Manassas Park","Virginia",20111,"","Food Retailer","Jan 10 2017 09:07:23:000PM","Jan 10 2017 09:07:23:000PM","9101 Andrew Dr Manassas Park Virginia 20111",-77.4352992,38.7584631
4303692,"7900 Convenience Store","7900 Westpark Dr # A","","McLean","Fairfax","Virginia",22102,"7038213211","","7900 Westpark Dr # A","McLean","Virginia",22102,"","Food Retailer","Jan 10 2017 09:08:22:000PM","Jan 10 2017 09:08:22:000PM","7900 Westpark Dr  A McLean Virginia 22102",-77.2167508,38.924493
4303707,"A & A Halal Grocery","8519 Manassas Dr","","Manassas Park","Manassas Park","Virginia",20111,"7032575073","","8519 Manassas Dr","Manassas Park","Virginia",20111,"","Food Retailer","Jan 10 2017 09:08:24:000PM","Jan 10 2017 09:08:24:000PM","8519 Manassas Dr Manassas Park Virginia 20111",-77.4516885,38.7707704
4303717,"A & H Shah LLC","5820 Mapledale Plz","","Woodbridge","Prince William","Virginia",22193,"5716599570","","5820 Mapledale Plz","Woodbridge","Virginia",22193,"","Food Retailer","Jan 10 2017 09:08:25:000PM","Jan 10 2017 09:08:25:000PM","5820 Mapledale Plz Woodbridge Virginia 22193",-77.3687268,38.6618311
4303733,"A B C Store","506 Fort Evans Rd","","Leesburg","Loudoun","Virginia",20176,"7037719608","","506 Fort Evans Rd","Leesburg","Virginia",20176,"","Food Retailer","Jan 10 2017 09:08:28:000PM","Jan 10 2017 09:08:28:000PM","506 Fort Evans Rd Leesburg Virginia 20176",-77.5300094,39.1078803
4303747,"A Hold-Stop & Shop Giant L","5581 Merchants View Sq","","Haymarket","Prince William","Virginia",20169,"5712486619","","5581 Merchants View Sq","Haymarket","Virginia",20169,"","Food Retailer","Jan 10 2017 09:08:30:000PM","Jan 10 2017 09:08:30:000PM","5581 Merchants View Sq Haymarket Virginia 20169",-77.641576,38.8444609
4303765,"A M Market","251 Potomac Ave","","Quantico","Prince William","Virginia",22134,"7036300300","","251 Potomac Ave","Quantico","Virginia",22134,"","Food Retailer","Jan 10 2017 09:08:33:000PM","Jan 10 2017 09:08:33:000PM","251 Potomac Ave Quantico Virginia 22134",-77.290629,38.5217529
4303797,"AAR Enterprises Inc","5784 Union Mill Rd","","Clifton","Fairfax","Virginia",20124,"7032662248","","5784 Union Mill Rd","Clifton","Virginia",20124,"","Food Retailer","Jan 10 2017 09:08:38:000PM","Jan 10 2017 09:08:38:000PM","5784 Union Mill Rd Clifton Virginia 20124",-77.4123261,38.8336057
4303800,"Abay Market","3811 S George Mason Dr # A","","Falls Church","Fairfax","Virginia",22041,"7039982366","","3811 S George Mason Dr # A","Falls Church","Virginia",22041,"","Food Retailer","Jan 10 2017 09:08:38:000PM","Jan 10 2017 09:08:38:000PM","3811 S George Mason Dr  A Falls Church Virginia 22041",-77.1187372,38.841455
4303805,"ABC","15201 Washington St","","Haymarket","Prince William","Virginia",20169,"7037532271","http://Abc.Org","15201 Washington St","Haymarket","Virginia",20169,"","Food Retailer","Jan 10 2017 09:08:39:000PM","Jan 10 2017 09:08:39:000PM","15201 Washington St Haymarket Virginia 20169",-77.6418504,38.8135298
4303817,"ABC Store","2940 Columbia Pike","","Arlington","Arlington","Virginia",22204,"7035211210","","2940 Columbia Pike","Arlington","Virginia",22204,"","Food Retailer","Jan 10 2017 09:08:41:000PM","Jan 10 2017 09:08:41:000PM","2940 Columbia Pike Arlington Virginia 22204",-77.0872894,38.8618112
4303827,"ABC Store","175 W Lee Hwy","","Warrenton","Fauquier","Virginia",20186,"5403476353","","175 W Lee Hwy","Warrenton","Virginia",20186,"","Food Retailer","Jan 10 2017 09:08:42:000PM","Jan 10 2017 09:08:42:000PM","175 W Lee Hwy Warrenton Virginia 20186",-77.7965558,38.7304802
4303852,"Abuelita Mexican Foods","9209 Enterprise Ct","","Manassas Park","Manassas Park","Virginia",20111,"7033690232","","9209 Enterprise Ct","Manassas Park","Virginia",20111,"","Food Retailer","Jan 10 2017 09:08:46:000PM","Jan 10 2017 09:08:46:000PM","9209 Enterprise Ct Manassas Park Virginia 20111",-77.4356963,38.7740857
4303868,"ACR Snack Mart II Restaurant","4802 Dale Blvd","","Woodbridge","Prince William","Virginia",22193,"7036805095","","4802 Dale Blvd","Woodbridge","Virginia",22193,"","Food Retailer","Jan 10 2017 09:08:48:000PM","Jan 10 2017 09:08:48:000PM","4802 Dale Blvd Woodbridge Virginia 22193",-77.3532821,38.6607326
4303881,"Aden Grocery","13717 Aden Rd","","Nokesville","Prince William","Virginia",20181,"7035942626","","13717 Aden Rd","Nokesville","Virginia",20181,"","Food Retailer","Jan 10 2017 09:08:50:000PM","Jan 10 2017 09:08:50:000PM","13717 Aden Rd Nokesville Virginia 20181",-77.5368852,38.655194
4303885,"Adobea International African","5145 Duke St","","Alexandria","Alexandria","Virginia",22304,"7035664419","","5145 Duke St","Alexandria","Virginia",22304,"","Food Retailer","Jan 10 2017 09:08:51:000PM","Jan 10 2017 09:08:51:000PM","5145 Duke St Alexandria Virginia 22304",-77.1211455,38.8126448
4303891,"Aeiti Spice Depot","409 Maple Ave E","","Vienna","Fairfax","Virginia",22180,"7039383400","","409 Maple Ave E","Vienna","Virginia",22180,"","Food Retailer","Jan 10 2017 09:08:52:000PM","Jan 10 2017 09:08:52:000PM","409 Maple Ave E Vienna Virginia 22180",-77.2576997,38.9070638
4303895,"Afgan Mini Market Intl Grocery","6566 Backlick Rd","","Springfield","Fairfax","Virginia",22150,"7036440186","","6566 Backlick Rd","Springfield","Virginia",22150,"","Food Retailer","Jan 10 2017 09:08:53:000PM","Jan 10 2017 09:08:53:000PM","6566 Backlick Rd Springfield Virginia 22150",-77.1842626,38.7769175
4303913,"Ah Love Oil & Vinegar LLC","4017 Campbell Ave","","Arlington","Arlington","Virginia",22206,"7038202210","http://Ahloveoilandvinegar.Com","4017 Campbell Ave","Arlington","Virginia",22206,"","Food Retailer","Jan 10 2017 09:08:56:000PM","Jan 10 2017 09:08:56:000PM","4017 Campbell Ave Arlington Virginia 22206",-77.0875025,38.8410925
4303917,"Aid2wellness Svc & Supplies","5911 Edsall Rd","","Alexandria","Alexandria","Virginia",22304,"5712068584","","5911 Edsall Rd","Alexandria","Virginia",22304,"","Food Retailer","Jan 10 2017 09:08:56:000PM","Jan 10 2017 09:08:56:000PM","5911 Edsall Rd Alexandria Virginia 22304",-77.1369216,38.8079336
4303943,"Al Nakheel Cafe","340 Maple Ave W","","Vienna","Fairfax","Virginia",22180,"7039384220","","340 Maple Ave W","Vienna","Virginia",22180,"","Food Retailer","Jan 10 2017 09:09:01:000PM","Jan 10 2017 09:09:01:000PM","340 Maple Ave W Vienna Virginia 22180",-77.2701014,38.8970032
4303944,"Al Nakheel Lebanese Grocery","340 Maple Ave W","","Vienna","Fairfax","Virginia",22180,"7039384220","","340 Maple Ave W","Vienna","Virginia",22180,"","Food Retailer","Jan 10 2017 09:09:01:000PM","Jan 10 2017 09:09:01:000PM","340 Maple Ave W Vienna Virginia 22180",-77.2701014,38.8970032
4303950,"Al-Hera Supermarket","150 Elden St","","Herndon","Fairfax","Virginia",20170,"7034357800","","150 Elden St","Herndon","Virginia",20170,"","Food Retailer","Jan 10 2017 09:09:02:000PM","Jan 10 2017 09:09:02:000PM","150 Elden St Herndon Virginia 20170",-77.3675245,38.9670855
4303981,"Alcohol Beverage Control Dept","167 Hillwood Ave","","Falls Church","Falls Church","Virginia",22046,"7035325075","","167 Hillwood Ave","Falls Church","Virginia",22046,"","Food Retailer","Jan 10 2017 09:09:08:000PM","Jan 10 2017 09:09:08:000PM","167 Hillwood Ave Falls Church Virginia 22046",-77.1711858,38.8796326
4303984,"Alcohol Beverage Control Store","3678 King St","","Alexandria","Alexandria","Virginia",22302,"7038456374","http://Abc.Virginia.Gov","3678 King St","Alexandria","Virginia",22302,"","Food Retailer","Jan 10 2017 09:09:08:000PM","Jan 10 2017 09:09:08:000PM","3678 King St Alexandria Virginia 22302",-77.0920824,38.8284602
4303989,"Alcohol Beverage Control Store","13991 Jefferson Davis Hwy","","Woodbridge","Prince William","Virginia",22191,"7034944335","http://Abc.Virginia.Gov","13991 Jefferson Davis Hwy","Woodbridge","Virginia",22191,"","Food Retailer","Jan 10 2017 09:09:09:000PM","Jan 10 2017 09:09:09:000PM","13991 Jefferson Davis Hwy Woodbridge Virginia 22191",-77.2591265,38.6487349
4304065,"Alcoholic Beverage Control","100 Edds Ln","","Sterling","Loudoun","Virginia",20165,"7034502635","","100 Edds Ln","Sterling","Virginia",20165,"","Food Retailer","Jan 10 2017 09:09:22:000PM","Jan 10 2017 09:09:22:000PM","100 Edds Ln Sterling Virginia 20165",-77.412151,39.0402944
4304066,"Alcoholic Beverage Control","22360 S Sterling Blvd # D101","","Sterling","Loudoun","Virginia",20164,"7034047362","http://Hopandwine.Com","22360 S Sterling Blvd # D101","Sterling","Virginia",20164,"","Food Retailer","Jan 10 2017 09:09:22:000PM","Jan 10 2017 09:09:22:000PM","22360 S Sterling Blvd  D101 Sterling Virginia 20164",-77.4084252,38.9969145
4304067,"Alcoholic Beverage Control","46930 Cedar Lake Plz # 100-13","","Sterling","Loudoun","Virginia",20164,"7034047396","http://Abc.Virgina.Com","46930 Cedar Lake Plz # 100-13","Sterling","Virginia",20164,"","Food Retailer","Jan 10 2017 09:09:22:000PM","Jan 10 2017 09:09:22:000PM","46930 Cedar Lake Plz  10013 Sterling Virginia 20164",-77.375765,39.0180454
4304004,"Alcoholic Beverage Control","43150 Broadlands Center Plz","","Broadlands","Loudoun","Virginia",20148,"7037234163","","43150 Broadlands Center Plz","Broadlands","Virginia",20148,"","Food Retailer","Jan 10 2017 09:09:12:000PM","Jan 10 2017 09:09:12:000PM","43150 Broadlands Center Plz Broadlands Virginia 20148",-77.5087318,39.0269988
4304036,"Alcoholic Beverage Control","18 Fairfax St SE","","Leesburg","Loudoun","Virginia",20175,"7037712543","","18 Fairfax St SE","Leesburg","Virginia",20175,"","Food Retailer","Jan 10 2017 09:09:17:000PM","Jan 10 2017 09:09:17:000PM","18 Fairfax St SE Leesburg Virginia 20175",-77.56586,39.1086242
4304037,"Alcoholic Beverage Control","210 Fort Evans Rd NE # B","","Leesburg","Loudoun","Virginia",20176,"7037712534","","210 Fort Evans Rd NE # B","Leesburg","Virginia",20176,"","Food Retailer","Jan 10 2017 09:09:17:000PM","Jan 10 2017 09:09:17:000PM","210 Fort Evans Rd NE  B Leesburg Virginia 20176",-77.5368503,39.1106703
4304019,"Alcoholic Beverage Control","4108 Fortuna Center Plz","","Dale City","Prince William","Virginia",22192,"7035808351","http://Abc.Virginia.Gov","4108 Fortuna Center Plz","Dale City","Virginia",22192,"","Food Retailer","Jan 10 2017 09:09:14:000PM","Jan 10 2017 09:09:14:000PM","4108 Fortuna Center Plz Dale City Virginia 22192",-77.3319095,38.596118
4304029,"Alcoholic Beverage Control","8030 Crescent Park Dr","","Gainesville","Prince William","Virginia",20155,"7037531642","","8030 Crescent Park Dr","Gainesville","Virginia",20155,"","Food Retailer","Jan 10 2017 09:09:16:000PM","Jan 10 2017 09:09:16:000PM","8030 Crescent Park Dr Gainesville Virginia 20155",-77.6634597,38.7845008
4303990,"Alcoholic Beverage Control","3161 Duke St","","Alexandria","Alexandria","Virginia",22314,"7038234111","http://Abc.Ca.Gov","3161 Duke St","Alexandria","Virginia",22314,"","Food Retailer","Jan 10 2017 09:09:09:000PM","Jan 10 2017 09:09:09:000PM","3161 Duke St Alexandria Virginia 22314",-77.0856979,38.8090226
4303991,"Alcoholic Beverage Control","4312 Wheeler Ave","","Alexandria","Alexandria","Virginia",22304,"7038234160","","4312 Wheeler Ave","Alexandria","Virginia",22304,"","Food Retailer","Jan 10 2017 09:09:09:000PM","Jan 10 2017 09:09:09:000PM","4312 Wheeler Ave Alexandria Virginia 22304",-77.1070307,38.8075306
4303992,"Alcoholic Beverage Control","901 N Saint Asaph St","","Alexandria","Alexandria","Virginia",22314,"7035490700","","901 N Saint Asaph St","Alexandria","Virginia",22314,"","Food Retailer","Jan 10 2017 09:09:10:000PM","Jan 10 2017 09:09:10:000PM","901 N Saint Asaph St Alexandria Virginia 22314",-77.0436771,38.8141396
4304025,"Alcoholic Beverage Control","1212 W Broad St","","Falls Church","Falls Church","Virginia",22046,"7035361624","","1212 W Broad St","Falls Church","Virginia",22046,"","Food Retailer","Jan 10 2017 09:09:15:000PM","Jan 10 2017 09:09:15:000PM","1212 W Broad St Falls Church Virginia 22046",-77.1881791,38.8943678
4304022,"Alcoholic Beverage Control","10308 Willard Way","","Fairfax","Fairfax City","Virginia",22030,"7039347480","http://Abc.Virginia.Gov","10308 Willard Way","Fairfax","Virginia",22030,"","Food Retailer","Jan 10 2017 09:09:15:000PM","Jan 10 2017 09:09:15:000PM","10308 Willard Way Fairfax Virginia 22030",-77.3019101,38.8482875
4304023,"Alcoholic Beverage Control","11260 James Swart Cir # B-6","","Fairfax","Fairfax City","Virginia",22030,"7033859523","http://State.Va.Us","11260 James Swart Cir # B-6","Fairfax","Virginia",22030,"","Food Retailer","Jan 10 2017 09:09:15:000PM","Jan 10 2017 09:09:15:000PM","11260 James Swart Cir  B6 Fairfax Virginia 22030",-77.3359854,38.8549053
4304024,"Alcoholic Beverage Control","9600 Main St","","Fairfax","Fairfax City","Virginia",22031,"7033232417","","9600 Main St","Fairfax","Virginia",22031,"","Food Retailer","Jan 10 2017 09:09:15:000PM","Jan 10 2017 09:09:15:000PM","9600 Main St Fairfax Virginia 22031",-77.2741884,38.8427745
4303997,"Alcoholic Beverage Control","2955 S Glebe Rd # A","","Arlington","Arlington","Virginia",22206,"7035182412","http://Abc.Virginia.Gov","2955 S Glebe Rd # A","Arlington","Virginia",22206,"","Food Retailer","Jan 10 2017 09:09:11:000PM","Jan 10 2017 09:09:11:000PM","2955 S Glebe Rd  A Arlington Virginia 22206",-77.0674338,38.8457542
4303998,"Alcoholic Beverage Control","320 23rd St S # 275","","Arlington","Arlington","Virginia",22202,"7034160238","","320 23rd St S # 275","Arlington","Virginia",22202,"","Food Retailer","Jan 10 2017 09:09:11:000PM","Jan 10 2017 09:09:11:000PM","320 23rd St S  275 Arlington Virginia 22202",-77.0507215,38.853129
4303999,"Alcoholic Beverage Control","4709 Lee Hwy","","Arlington","Arlington","Virginia",22207,"7038750129","http://Abc.Virginia.Gov","4709 Lee Hwy","Arlington","Virginia",22207,"","Food Retailer","Jan 10 2017 09:09:11:000PM","Jan 10 2017 09:09:11:000PM","4709 Lee Hwy Arlington Virginia 22207",-77.1223142,38.8984942
4304000,"Alcoholic Beverage Control","881 N Quincy St","","Arlington","Arlington","Virginia",22203,"7038750137","","881 N Quincy St","Arlington","Virginia",22203,"","Food Retailer","Jan 10 2017 09:09:11:000PM","Jan 10 2017 09:09:11:000PM","881 N Quincy St Arlington Virginia 22203",-77.1074426,38.8808293
4303995,"Alcoholic Beverage Control","6920 E Bradlick Shopping Ctr","","Annandale","Fairfax","Virginia",22003,"7038131535","","6920 E Bradlick Shopping Ctr","Annandale","Virginia",22003,"","Food Retailer","Jan 10 2017 09:09:10:000PM","Jan 10 2017 09:09:10:000PM","6920 E Bradlick Shopping Ctr Annandale Virginia 22003",-77.1839572,38.8130789
4303996,"Alcoholic Beverage Control","7200 Little River Tpke","","Annandale","Fairfax","Virginia",22003,"7038131357","http://Abc.Virginia.Gov","7200 Little River Tpke","Annandale","Virginia",22003,"","Food Retailer","Jan 10 2017 09:09:10:000PM","Jan 10 2017 09:09:10:000PM","7200 Little River Tpke Annandale Virginia 22003",-77.1932894,38.8303444
4304005,"Alcoholic Beverage Control","9574 Old Keene Mill Rd","","Burke","Fairfax","Virginia",22015,"7034512138","","9574 Old Keene Mill Rd","Burke","Virginia",22015,"","Food Retailer","Jan 10 2017 09:09:12:000PM","Jan 10 2017 09:09:12:000PM","9574 Old Keene Mill Rd Burke Virginia 22015",-77.2744802,38.7788906
4304006,"Alcoholic Beverage Control","14151 Saint Germain Dr","","Centreville","Fairfax","Virginia",20121,"7038030081","","14151 Saint Germain Dr","Centreville","Virginia",20121,"","Food Retailer","Jan 10 2017 09:09:12:000PM","Jan 10 2017 09:09:12:000PM","14151 Saint Germain Dr Centreville Virginia 20121",-77.4374101,38.8362384
4304002,"Alcoholic Beverage Control","11083 Marsh Rd # E","","Bealeton","Fauquier","Virginia",22712,"5404397387","","11083 Marsh Rd # E","Bealeton","Virginia",22712,"","Food Retailer","Jan 10 2017 09:09:11:000PM","Jan 10 2017 09:09:11:000PM","11083 Marsh Rd  E Bealeton Virginia 22712",-77.7653687,38.5792913
4304063,"Alcoholic Beverage Control","6402 Springfield Mall","","Springfield","Fairfax","Virginia",22150,"7038667835","","6402 Springfield Mall","Springfield","Virginia",22150,"","Food Retailer","Jan 10 2017 09:09:21:000PM","Jan 10 2017 09:09:21:000PM","6402 Springfield Mall Springfield Virginia 22150",-77.1894151,38.7794306
4304064,"Alcoholic Beverage Control","8428 Old Keene Mill Rd","","Springfield","Fairfax","Virginia",22152,"7035693945","","8428 Old Keene Mill Rd","Springfield","Virginia",22152,"","Food Retailer","Jan 10 2017 09:09:22:000PM","Jan 10 2017 09:09:22:000PM","8428 Old Keene Mill Rd Springfield Virginia 22152",-77.2364456,38.7797971
4304043,"Alcoholic Beverage Control","1446 Chain Bridge Rd","","McLean","Fairfax","Virginia",22101,"7033566066","","1446 Chain Bridge Rd","McLean","Virginia",22101,"","Food Retailer","Jan 10 2017 09:09:18:000PM","Jan 10 2017 09:09:18:000PM","1446 Chain Bridge Rd McLean Virginia 22101",-77.1798785,38.9330436
4304055,"Alcoholic Beverage Control","11160 South Lakes Dr # A","","Reston","Fairfax","Virginia",20191,"7038600715","","11160 South Lakes Dr # A","Reston","Virginia",20191,"","Food Retailer","Jan 10 2017 09:09:19:000PM","Jan 10 2017 09:09:19:000PM","11160 South Lakes Dr  A Reston Virginia 20191",-77.3307083,38.93874
4304033,"Alcoholic Beverage Control","1238 Elden St # A-3","","Herndon","Fairfax","Virginia",20170,"7037332845","","1238 Elden St # A-3","Herndon","Virginia",20170,"","Food Retailer","Jan 10 2017 09:09:16:000PM","Jan 10 2017 09:09:16:000PM","1238 Elden St  A3 Herndon Virginia 20170",-77.4009254,38.9620376
4304034,"Alcoholic Beverage Control","13300 Franklin Farm Rd # C","","Herndon","Fairfax","Virginia",20171,"7033262201","http://Abc.Virginia.Gov","13300 Franklin Farm Rd # C","Herndon","Virginia",20171,"","Food Retailer","Jan 10 2017 09:09:16:000PM","Jan 10 2017 09:09:16:000PM","13300 Franklin Farm Rd  C Herndon Virginia 20171",-77.406037,38.9079202
4304035,"Alcoholic Beverage Control","601 Post Dr","","Herndon","Fairfax","Virginia",20170,"7033262217","","601 Post Dr","Herndon","Virginia",20170,"","Food Retailer","Jan 10 2017 09:09:16:000PM","Jan 10 2017 09:09:16:000PM","601 Post Dr Herndon Virginia 20170",-77.3759744,38.9669205
4304038,"Alcoholic Beverage Control","9421 Lorton Market St","","Lorton","Fairfax","Virginia",22079,"7033722929","","9421 Lorton Market St","Lorton","Virginia",22079,"","Food Retailer","Jan 10 2017 09:09:17:000PM","Jan 10 2017 09:09:17:000PM","9421 Lorton Market St Lorton Virginia 22079",-77.2199801,38.7023503
4304026,"Alcoholic Beverage Control","7263 Arlington Blvd # B","","Falls Church","Fairfax","Virginia",22042,"7032077372","","7263 Arlington Blvd # B","Falls Church","Virginia",22042,"","Food Retailer","Jan 10 2017 09:09:15:000PM","Jan 10 2017 09:09:15:000PM","7263 Arlington Blvd  B Falls Church Virginia 22042",-77.1967515,38.8650526
4304027,"Alcoholic Beverage Control","8105 Lee Hwy","","Falls Church","Fairfax","Virginia",22042,"7032077399","","8105 Lee Hwy","Falls Church","Virginia",22042,"","Food Retailer","Jan 10 2017 09:09:15:000PM","Jan 10 2017 09:09:15:000PM","8105 Lee Hwy Falls Church Virginia 22042",-77.2250898,38.8741309
4304016,"Alcoholic Beverage Control","5722 Union Mill Rd","","Clifton","Fairfax","Virginia",20124,"7038030060","http://Abc.Virginia.Gov","5722 Union Mill Rd","Clifton","Virginia",20124,"","Food Retailer","Jan 10 2017 09:09:14:000PM","Jan 10 2017 09:09:14:000PM","5722 Union Mill Rd Clifton Virginia 20124",-77.414568,38.8339307
4304080,"Alcoholic Beverage Control Dpt","4255 Cheshire Station Plz","","Dale City","Prince William","Virginia",22193,"7036703231","","4255 Cheshire Station Plz","Dale City","Virginia",22193,"","Food Retailer","Jan 10 2017 09:09:25:000PM","Jan 10 2017 09:09:25:000PM","4255 Cheshire Station Plz Dale City Virginia 22193",-77.3333936,38.6450475
4304099,"ALDI","6129 Backlick Rd","","Springfield","Fairfax","Virginia",22150,"","http://Aldifoods.Com","6129 Backlick Rd","Springfield","Virginia",22150,"","Food Retailer","Jan 10 2017 09:09:31:000PM","Jan 10 2017 09:09:31:000PM","6129 Backlick Rd Springfield Virginia 22150",-77.1841708,38.7837829
4304091,"ALDI","13920a Lee Jackson Memorial Hw","","Chantilly","Fairfax","Virginia",20151,"","http://Aldifoods.Com","13920a Lee Jackson Memorial Hw","Chantilly","Virginia",20151,"","Food Retailer","Jan 10 2017 09:09:28:000PM","Jan 10 2017 09:09:28:000PM","13920a Lee Jackson Memorial Hw Chantilly Virginia 20151",-77.4277941,38.8941756
4304095,"ALDI","11001 Lee Hwy # G","","Fairfax","Fairfax City","Virginia",22030,"","http://Aldifoods.Com","11001 Lee Hwy # G","Fairfax","Virginia",22030,"","Food Retailer","Jan 10 2017 09:09:29:000PM","Jan 10 2017 09:09:29:000PM","11001 Lee Hwy  G Fairfax Virginia 22030",-77.3236468,38.8520641
4304101,"ALDI","21031 Tripleseven Rd # 130","","Sterling","Loudoun","Virginia",20165,"","http://Aldifoods.Com","21031 Tripleseven Rd # 130","Sterling","Virginia",20165,"","Food Retailer","Jan 10 2017 09:09:31:000PM","Jan 10 2017 09:09:31:000PM","21031 Tripleseven Rd  130 Sterling Virginia 20165",-77.4075284,39.0349896
4304104,"ALDI","13291 Gordon Blvd","","Woodbridge","Prince William","Virginia",22191,"","http://Aldifoods.Com","13291 Gordon Blvd","Woodbridge","Virginia",22191,"","Food Retailer","Jan 10 2017 09:09:32:000PM","Jan 10 2017 09:09:32:000PM","13291 Gordon Blvd Woodbridge Virginia 22191",-77.2481487,38.6641087
4304105,"ALDI","13782 Smoketown Rd","","Woodbridge","Prince William","Virginia",22192,"","http://Aldifoods.Com","13782 Smoketown Rd","Woodbridge","Virginia",22192,"","Food Retailer","Jan 10 2017 09:09:32:000PM","Jan 10 2017 09:09:32:000PM","13782 Smoketown Rd Woodbridge Virginia 22192",-77.3064642,38.6531133
4304106,"Aldie Automotive","39222 John Mosby Hwy","","Aldie","Loudoun","Virginia",20105,"7033274453","","39222 John Mosby Hwy","Aldie","Virginia",20105,"","Food Retailer","Jan 10 2017 09:09:32:000PM","Jan 10 2017 09:09:32:000PM","39222 John Mosby Hwy Aldie Virginia 20105",-77.6478251,38.977347
4304107,"Aldie Country Store","39285 John Mosby Hwy","","Aldie","Loudoun","Virginia",20105,"7039574999","http://Villageofaldie.Com","PO Box 555","Aldie","Virginia",20105,"","Food Retailer","Jan 10 2017 09:09:33:000PM","Jan 10 2017 09:09:33:000PM","39285 John Mosby Hwy Aldie Virginia 20105",-77.6457598,38.9762598
4304108,"Aldie Liberty","41105 John Mosby Hwy","","Aldie","Loudoun","Virginia",20105,"7033274606","","41105 John Mosby Hwy","Aldie","Virginia",20105,"","Food Retailer","Jan 10 2017 09:09:33:000PM","Jan 10 2017 09:09:33:000PM","41105 John Mosby Hwy Aldie Virginia 20105",-77.5820535,38.9535278
4304119,"Alesbury Antique Ctr & Tea Rms","212 Loudoun St SE","","Leesburg","Loudoun","Virginia",20175,"7034431870","","212 Loudoun St SE","Leesburg","Virginia",20175,"","Food Retailer","Jan 10 2017 09:09:35:000PM","Jan 10 2017 09:09:35:000PM","212 Loudoun St SE Leesburg Virginia 20175",-77.568241,39.1154833
4304124,"Alexandria Beltway Exxon","700 S Patrick St","","Alexandria","Alexandria","Virginia",22314,"7038365136","http://Exxonmobilstations.Com","700 S Patrick St","Alexandria","Virginia",22314,"","Food Retailer","Jan 10 2017 09:09:36:000PM","Jan 10 2017 09:09:36:000PM","700 S Patrick St Alexandria Virginia 22314",-77.0515217,38.7981564
4304126,"Alexandria Duke Mobil","4109 Duke St","","Alexandria","Alexandria","Virginia",22304,"7033704933","http://Exxonmobilstations.Com","4109 Duke St","Alexandria","Virginia",22304,"","Food Retailer","Jan 10 2017 09:09:36:000PM","Jan 10 2017 09:09:36:000PM","4109 Duke St Alexandria Virginia 22304",-77.1015911,38.8113037
4304127,"Alexandria Exxon","2320 Fannon St","","Alexandria","Alexandria","Virginia",22305,"7035351501","http://Exxonmobilstations.Com","2320 Fannon St","Alexandria","Virginia",22305,"","Food Retailer","Jan 10 2017 09:09:36:000PM","Jan 10 2017 09:09:36:000PM","2320 Fannon St Alexandria Virginia 22305",-77.0508696,38.8274802
4304128,"Alexandria Exxon","501 S Washington St","","Alexandria","Alexandria","Virginia",22314,"7035496631","http://Exxonmobilstations.Com","501 S Washington St","Alexandria","Virginia",22314,"","Food Retailer","Jan 10 2017 09:09:36:000PM","Jan 10 2017 09:09:36:000PM","501 S Washington St Alexandria Virginia 22314",-77.048336,38.8003212
4304129,"Alexandria Exxon","703 N Washington St","","Alexandria","Alexandria","Virginia",22314,"7035490854","http://Exxonmobilstations.Com","703 N Washington St","Alexandria","Virginia",22314,"","Food Retailer","Jan 10 2017 09:09:37:000PM","Jan 10 2017 09:09:37:000PM","703 N Washington St Alexandria Virginia 22314",-77.0452025,38.8121368
4304135,"Ali Grocery Store","14808 Build America Dr","","Woodbridge","Prince William","Virginia",22191,"7034978669","","14808 Build America Dr","Woodbridge","Virginia",22191,"","Food Retailer","Jan 10 2017 09:09:38:000PM","Jan 10 2017 09:09:38:000PM","14808 Build America Dr Woodbridge Virginia 22191",-77.2723254,38.6320074
4304183,"Allstate Distributors","8821 Clinton Dr","","Nokesville","Prince William","Virginia",20181,"7037914100","","PO Box 1175","Nokesville","Virginia",22655,"","Food Retailer","Jan 10 2017 09:09:46:000PM","Jan 10 2017 09:09:46:000PM","8821 Clinton Dr Nokesville Virginia 20181",-77.4670825,38.6591807
4304194,"Alrafdain Market","3212 Old Pickett Rd","","Fairfax","Fairfax City","Virginia",22031,"7038655722","","3212 Old Pickett Rd","Fairfax","Virginia",22031,"","Food Retailer","Jan 10 2017 09:09:47:000PM","Jan 10 2017 09:09:47:000PM","3212 Old Pickett Rd Fairfax Virginia 22031",-77.2744353,38.8637583
4304201,"Altura Wines","108 Patrick","","Alexandria","Alexandria","Virginia",22314,"7036832425","","108 Patrick","Alexandria","Virginia",22314,"","Food Retailer","Jan 10 2017 09:09:49:000PM","Jan 10 2017 09:09:49:000PM","108 Patrick Alexandria Virginia 22314",-77.0503394,38.8058546
4304222,"America Seafood Corp","4550 Lee Hwy","","Arlington","Arlington","Virginia",22207,"7035228080","http://Leeheightsshops.Com","4550 Lee Hwy","Arlington","Virginia",22207,"","Food Retailer","Jan 10 2017 09:09:52:000PM","Jan 10 2017 09:09:52:000PM","4550 Lee Hwy Arlington Virginia 22207",-77.1191453,38.8980397
4304235,"American Halal Meat","7313 Boudinot Dr # D","","Springfield","Fairfax","Virginia",22150,"7034519240","http://Americanhalalmeat.Com","7313 Boudinot Dr # D","Springfield","Virginia",22150,"","Food Retailer","Jan 10 2017 09:09:54:000PM","Jan 10 2017 09:09:54:000PM","7313 Boudinot Dr  D Springfield Virginia 22150",-77.194495,38.741416
4304238,"American Majestic Eagle","7399 Lee Hwy","","Falls Church","Fairfax","Virginia",22042,"7036987799","http://Texaco.Com","7399 Lee Hwy","Falls Church","Virginia",22042,"","Food Retailer","Jan 10 2017 09:09:55:000PM","Jan 10 2017 09:09:55:000PM","7399 Lee Hwy Falls Church Virginia 22042",-77.1991202,38.8754813
4304248,"Americana Grocery","14428 Jefferson Davis Hwy","","Woodbridge","Prince William","Virginia",22191,"5715723961","http://Americanagrocery.Net","14428 Jefferson Davis Hwy","Woodbridge","Virginia",22191,"","Food Retailer","Jan 10 2017 09:09:57:000PM","Jan 10 2017 09:09:57:000PM","14428 Jefferson Davis Hwy Woodbridge Virginia 22191",-77.2686034,38.6397847
4304249,"Americana Grocery Of VA","10897 Main St","","Fairfax","Fairfax City","Virginia",22030,"7039340100","","10897 Main St","Fairfax","Virginia",22030,"","Food Retailer","Jan 10 2017 09:09:57:000PM","Jan 10 2017 09:09:57:000PM","10897 Main St Fairfax Virginia 22030",-77.3215389,38.8512438
4304250,"Americana Grocery Of VA","6128 Columbia Pike","","Falls Church","Fairfax","Virginia",22041,"7036749625","","6128 Columbia Pike","Falls Church","Virginia",22041,"","Food Retailer","Jan 10 2017 09:09:57:000PM","Jan 10 2017 09:09:57:000PM","6128 Columbia Pike Falls Church Virginia 22041",-77.1427191,38.8441467
4304272,"Amigos Market","14215q Centreville Sq","","Centreville","Fairfax","Virginia",20121,"7038156328","","14215q Centreville Sq","Centreville","Virginia",20121,"","Food Retailer","Jan 10 2017 09:10:01:000PM","Jan 10 2017 09:10:01:000PM","14215q Centreville Sq Centreville Virginia 20121",-77.4376567,38.8375319
4304275,"Amity LLC","10372 Fairfax Blvd","","Fairfax","Fairfax City","Virginia",22030,"7035912900","http://Amitymeat.Com","10372 Fairfax Blvd","Fairfax","Virginia",22030,"","Food Retailer","Jan 10 2017 09:10:01:000PM","Jan 10 2017 09:10:01:000PM","10372 Fairfax Blvd Fairfax Virginia 22030",-77.3037005,38.8605142
4304299,"Ana's Market","707l E Market St","","Leesburg","Loudoun","Virginia",20176,"7037772232","","707l E Market St","Leesburg","Virginia",20176,"","Food Retailer","Jan 10 2017 09:10:05:000PM","Jan 10 2017 09:10:05:000PM","707l E Market St Leesburg Virginia 20176",-77.5490896,39.1066729
4304301,"Anandale Liberty","7604 Little River Tpke","","Annandale","Fairfax","Virginia",22003,"7039414161","http://Citgo.Com","7604 Little River Tpke","Annandale","Virginia",22003,"","Food Retailer","Jan 10 2017 09:10:05:000PM","Jan 10 2017 09:10:05:000PM","7604 Little River Tpke Annandale Virginia 22003",-77.2082699,38.832911
4304308,"Anderson & Lambert LTD","5200 Duke St","","Alexandria","Alexandria","Virginia",22304,"7037517242","","5200 Duke St","Alexandria","Virginia",22304,"","Food Retailer","Jan 10 2017 09:10:06:000PM","Jan 10 2017 09:10:06:000PM","5200 Duke St Alexandria Virginia 22304",-77.1220894,38.8119865
4304312,"Anderson Sunoco","5501 Lee Hwy","","Arlington","Arlington","Virginia",22207,"7035320773","http://Sunoco.Com","5501 Lee Hwy","Arlington","Virginia",22207,"","Food Retailer","Jan 10 2017 09:10:07:000PM","Jan 10 2017 09:10:07:000PM","5501 Lee Hwy Arlington Virginia 22207",-77.1392811,38.8963943
4304390,"Annandale BP","7101 Columbia Pike","","Annandale","Fairfax","Virginia",22003,"7033544641","http://Mybpstation.Com","7101 Columbia Pike","Annandale","Virginia",22003,"","Food Retailer","Jan 10 2017 09:10:20:000PM","Jan 10 2017 09:10:20:000PM","7101 Columbia Pike Annandale Virginia 22003",-77.189889,38.832551
4304392,"Annandale CITGO","7131 Columbia Pike","","Annandale","Fairfax","Virginia",22003,"7039418308","http://Citgo.Com","7131 Columbia Pike","Annandale","Virginia",22003,"","Food Retailer","Jan 10 2017 09:10:20:000PM","Jan 10 2017 09:10:20:000PM","7131 Columbia Pike Annandale Virginia 22003",-77.1915824,38.831883
4304394,"Annandale Service Ctr","7029 Columbia Pike","","Annandale","Fairfax","Virginia",22003,"7032565747","","7029 Columbia Pike","Annandale","Virginia",22003,"","Food Retailer","Jan 10 2017 09:10:21:000PM","Jan 10 2017 09:10:21:000PM","7029 Columbia Pike Annandale Virginia 22003",-77.1884377,38.8331012
4304437,"Aphrodite Greek Imports","5886 Leesburg Pike","","Falls Church","Fairfax","Virginia",22041,"7039315055","","5886 Leesburg Pike","Falls Church","Virginia",22041,"","Food Retailer","Jan 10 2017 09:10:27:000PM","Jan 10 2017 09:10:27:000PM","5886 Leesburg Pike Falls Church Virginia 22041",-77.134264,38.8538575
4304537,"Appleton Farm","PO Box 166","","Middleburg","Loudoun","Virginia",20118,"5406875678","","PO Box 166","Middleburg","Virginia",20118,"","Food Retailer","Jan 10 2017 09:10:46:000PM","Jan 10 2017 09:10:46:000PM","PO Box 166 Middleburg Virginia 20118",-77.7375358,38.9679272
4304551,"Aramark","1215 S Clark St","","Arlington","Arlington","Virginia",22202,"3015862488","http://Aramark.Com","1215 S Clark St","Arlington","Virginia",22202,"","Food Retailer","Jan 10 2017 09:10:48:000PM","Jan 10 2017 09:10:48:000PM","1215 S Clark St Arlington Virginia 22202",-77.0507796,38.8625763
4304666,"Ariana Universal Inc","376 Elden St","","Herndon","Fairfax","Virginia",20170,"7039047000","http://Arianaintl.Com","376 Elden St","Herndon","Virginia",20170,"","Food Retailer","Jan 10 2017 09:11:07:000PM","Jan 10 2017 09:11:07:000PM","376 Elden St Herndon Virginia 20170",-77.3744055,38.9690017
4304671,"Arlington Auto Svc","5200 Columbia Pike","","Arlington","Arlington","Virginia",22204,"7036719394","","5200 Columbia Pike","Arlington","Virginia",22204,"","Food Retailer","Jan 10 2017 09:11:07:000PM","Jan 10 2017 09:11:07:000PM","5200 Columbia Pike Arlington Virginia 22204",-77.1155043,38.854386
4304672,"Arlington BP","5601 Lee Hwy","","Arlington","Arlington","Virginia",22207,"7035366388","http://Mybpstation.Com","5601 Lee Hwy","Arlington","Virginia",22207,"","Food Retailer","Jan 10 2017 09:11:07:000PM","Jan 10 2017 09:11:07:000PM","5601 Lee Hwy Arlington Virginia 22207",-77.1411189,38.8958784
4304675,"Arlington Exxon","4035 Old Dominion Dr","","Arlington","Arlington","Virginia",22207,"7032433080","http://Exxonmobilstations.Com","4035 Old Dominion Dr","Arlington","Virginia",22207,"","Food Retailer","Jan 10 2017 09:11:08:000PM","Jan 10 2017 09:11:08:000PM","4035 Old Dominion Dr Arlington Virginia 22207",-77.109121,38.8976014
4304676,"Arlington Grocery","2524 Columbia Pike","","Arlington","Arlington","Virginia",22204,"7035211120","","2524 Columbia Pike","Arlington","Virginia",22204,"","Food Retailer","Jan 10 2017 09:11:08:000PM","Jan 10 2017 09:11:08:000PM","2524 Columbia Pike Arlington Virginia 22204",-77.0844643,38.8628569
4304678,"Arlington Market Kegs","1144 N Stuart St","","Arlington","Arlington","Virginia",22201,"7033516121","","1144 N Stuart St","Arlington","Virginia",22201,"","Food Retailer","Jan 10 2017 09:11:08:000PM","Jan 10 2017 09:11:08:000PM","1144 N Stuart St Arlington Virginia 22201",-77.1124026,38.8854432
4304680,"Arlyn K Black Enterprises Inc","200 Davis Dr","","Sterling","Loudoun","Virginia",20164,"7034509280","http://Chevronwithtechron.Com","200 Davis Dr","Sterling","Virginia",20164,"","Food Retailer","Jan 10 2017 09:11:08:000PM","Jan 10 2017 09:11:08:000PM","200 Davis Dr Sterling Virginia 20164",-77.4210692,38.9929201
4304687,"Arna Valley Exxon","2720 S Glebe Rd","","Arlington","Arlington","Virginia",22206,"5719703351","http://Exxonmobilstations.Com","2720 S Glebe Rd","Arlington","Virginia",22206,"","Food Retailer","Jan 10 2017 09:11:10:000PM","Jan 10 2017 09:11:10:000PM","2720 S Glebe Rd Arlington Virginia 22206",-77.0781215,38.8441166
4304700,"Arrowine Inc","4508 Lee Hwy","","Arlington","Arlington","Virginia",22207,"7035250990","http://Arrowineandspirits.Net","4508 Lee Hwy","Arlington","Virginia",22207,"","Food Retailer","Jan 10 2017 09:11:11:000PM","Jan 10 2017 09:11:11:000PM","4508 Lee Hwy Arlington Virginia 22207",-77.1183586,38.8983733
4304717,"Ashbrook Shell","20065 Ashbrook Commons Plz","","Ashburn","Loudoun","Virginia",20147,"7037269939","http://Shell.Com","20065 Ashbrook Commons Plz","Ashburn","Virginia",20147,"","Food Retailer","Jan 10 2017 09:11:14:000PM","Jan 10 2017 09:11:14:000PM","20065 Ashbrook Commons Plz Ashburn Virginia 20147",-77.4715416,39.0610458
4304719,"Ashburn Mobil","44111 Ashburn Shopping Plz","","Ashburn","Loudoun","Virginia",20147,"7037299831","http://Exxonmobilstations.Com","44111 Ashburn Shopping Plz","Ashburn","Virginia",20147,"","Food Retailer","Jan 10 2017 09:11:15:000PM","Jan 10 2017 09:11:15:000PM","44111 Ashburn Shopping Plz Ashburn Virginia 20147",-77.4741575,39.0442652
4304720,"ASHBURN Petro LLC","44245 Ice Rink Plz","","Ashburn","Loudoun","Virginia",20147,"7037262890","","44245 Ice Rink Plz","Ashburn","Virginia",20147,"","Food Retailer","Jan 10 2017 09:11:15:000PM","Jan 10 2017 09:11:15:000PM","44245 Ice Rink Plz Ashburn Virginia 20147",-77.4697588,39.0193321
4304722,"Ashburn Spices","43761 Parkhurst Plz","","Ashburn","Loudoun","Virginia",20147,"7037237374","","43761 Parkhurst Plz","Ashburn","Virginia",20147,"","Food Retailer","Jan 10 2017 09:11:15:000PM","Jan 10 2017 09:11:15:000PM","43761 Parkhurst Plz Ashburn Virginia 20147",-77.4864191,39.0291498
4304723,"Ashburn Wine Shop","44050 Ashburn Shpg Plz # 159","","Ashburn","Loudoun","Virginia",20147,"7037237575","http://Ashburnwineshop.Net","44050 Ashburn Shpg Plz # 159","Ashburn","Virginia",20147,"","Food Retailer","Jan 10 2017 09:11:15:000PM","Jan 10 2017 09:11:15:000PM","44050 Ashburn Shpg Plz  159 Ashburn Virginia 20147",-77.4764759,39.0447777
4304739,"Asia Grocery","3201 Columbia Pike","","Arlington","Arlington","Virginia",22204,"5719703170","","3201 Columbia Pike","Arlington","Virginia",22204,"","Food Retailer","Jan 10 2017 09:11:18:000PM","Jan 10 2017 09:11:18:000PM","3201 Columbia Pike Arlington Virginia 22204",-77.0900142,38.8620977
4304742,"Asia Market","5143 Lee Hwy","","Arlington","Arlington","Virginia",22207,"7035331505","","5143 Lee Hwy","Arlington","Virginia",22207,"","Food Retailer","Jan 10 2017 09:11:18:000PM","Jan 10 2017 09:11:18:000PM","5143 Lee Hwy Arlington Virginia 22207",-77.132034,38.896613
4304744,"Asia Supermarket","6216 Wilson Blvd","","Falls Church","Fairfax","Virginia",22044,"7032378411","","6216 Wilson Blvd","Falls Church","Virginia",22044,"","Food Retailer","Jan 10 2017 09:11:19:000PM","Jan 10 2017 09:11:19:000PM","6216 Wilson Blvd Falls Church Virginia 22044",-77.1488749,38.873659
4304765,"Asian Grocery & Halal Meats","47024 Harry Byrd Hwy # 108","","Sterling","Loudoun","Virginia",20164,"7034214100","","47024 Harry Byrd Hwy # 108","Sterling","Virginia",20164,"","Food Retailer","Jan 10 2017 09:11:22:000PM","Jan 10 2017 09:11:22:000PM","47024 Harry Byrd Hwy  108 Sterling Virginia 20164",-77.3725033,39.0157221
4304766,"Asian Grocery Market","4809 Columbia Pike","","Arlington","Arlington","Virginia",22204,"7038925004","","4809 Columbia Pike","Arlington","Virginia",22204,"","Food Retailer","Jan 10 2017 09:11:22:000PM","Jan 10 2017 09:11:22:000PM","4809 Columbia Pike Arlington Virginia 22204",-77.109166,38.8570114
4304770,"Asian Market","23520 Overland Dr # 114","","Sterling","Loudoun","Virginia",20166,"7036616666","","23520 Overland Dr # 114","Sterling","Virginia",20166,"","Food Retailer","Jan 10 2017 09:11:23:000PM","Jan 10 2017 09:11:23:000PM","23520 Overland Dr  114 Sterling Virginia 20166",-77.4965782,38.9616151
4304776,"Asian Spice Cafe","42395 Ryan Rd # 126","","Ashburn","Loudoun","Virginia",20148,"7033272525","","42395 Ryan Rd # 126","Ashburn","Virginia",20148,"","Food Retailer","Jan 10 2017 09:11:24:000PM","Jan 10 2017 09:11:24:000PM","42395 Ryan Rd  126 Ashburn Virginia 20148",-77.5369243,38.9857212
4304781,"Asni Supermarket & Hot Coffee","1045 S Edgewood St","","Arlington","Arlington","Virginia",22204,"7039793944","","1045 S Edgewood St","Arlington","Virginia",22204,"","Food Retailer","Jan 10 2017 09:11:25:000PM","Jan 10 2017 09:11:25:000PM","1045 S Edgewood St Arlington Virginia 22204",-77.0858778,38.8618352
4304785,"Assal Market","120 Maple Ave W","","Vienna","Fairfax","Virginia",22180,"7032812223","","120 Maple Ave W","Vienna","Virginia",22180,"","Food Retailer","Jan 10 2017 09:11:26:000PM","Jan 10 2017 09:11:26:000PM","120 Maple Ave W Vienna Virginia 22180",-77.2656899,38.9008196
4304828,"Atoka Market","1468 Atoka Rd","","Marshall","Fauquier","Virginia",20115,"5406875669","","1468 Atoka Rd","Marshall","Virginia",20115,"","Food Retailer","Jan 10 2017 09:11:32:000PM","Jan 10 2017 09:11:32:000PM","1468 Atoka Rd Marshall Virginia 20115",-77.8090969,38.9758458
4304845,"Au Domaine","802 N Fairfax St","","Alexandria","Alexandria","Virginia",22314,"7038369463","","PO Box 151658","Alexandria","Virginia",22315,"","Food Retailer","Jan 10 2017 09:11:35:000PM","Jan 10 2017 09:11:35:000PM","802 N Fairfax St Alexandria Virginia 22314",-77.0410286,38.8126952
4304887,"Auto Care Montclai","17013 Dumfries Rd","","Dumfries","Prince William","Virginia",22025,"7032212215","","17013 Dumfries Rd","Dumfries","Virginia",22025,"","Food Retailer","Jan 10 2017 09:11:42:000PM","Jan 10 2017 09:11:42:000PM","17013 Dumfries Rd Dumfries Virginia 22025",-77.3283369,38.5830591
4304892,"AVT Venture LLC","5509 Leesburg Pike","","Falls Church","Fairfax","Virginia",22041,"7038201961","","5509 Leesburg Pike","Falls Church","Virginia",22041,"","Food Retailer","Jan 10 2017 09:11:42:000PM","Jan 10 2017 09:11:42:000PM","5509 Leesburg Pike Falls Church Virginia 22041",-77.123117,38.846802
4304899,"Ayah Slaughter House LLC","241 W Shirley Ave","","Warrenton","Fauquier","Virginia",20186,"5403474178","","241 W Shirley Ave","Warrenton","Virginia",20186,"","Food Retailer","Jan 10 2017 09:11:43:000PM","Jan 10 2017 09:11:43:000PM","241 W Shirley Ave Warrenton Virginia 20186",-77.8052097,38.7136913
4304900,"Ayer Tena Market","3825 S George Mason Dr","","Falls Church","Fairfax","Virginia",22041,"7035754454","","3825 S George Mason Dr","Falls Church","Virginia",22041,"","Food Retailer","Jan 10 2017 09:11:44:000PM","Jan 10 2017 09:11:44:000PM","3825 S George Mason Dr Falls Church Virginia 22041",-77.1202016,38.8409508
4304966,"Babylon Market","1055 W Broad St","","Falls Church","Falls Church","Virginia",22046,"7035330004","","1055 W Broad St","Falls Church","Virginia",22046,"","Food Retailer","Jan 10 2017 09:11:53:000PM","Jan 10 2017 09:11:53:000PM","1055 W Broad St Falls Church Virginia 22046",-77.1860732,38.8913782
4304982,"Backlick Road Svc Station","4715 Backlick Rd","","Annandale","Fairfax","Virginia",22003,"7039419848","","4715 Backlick Rd","Annandale","Virginia",22003,"","Food Retailer","Jan 10 2017 09:11:56:000PM","Jan 10 2017 09:11:56:000PM","4715 Backlick Rd Annandale Virginia 22003",-77.1910882,38.8219809
4305035,"Baker's Appliance Sales Inc","1330 Old Bridge Rd","","Woodbridge","Prince William","Virginia",22192,"7034947111","http://Bakersheatingair.Com","1330 Old Bridge Rd","Woodbridge","Virginia",22192,"","Food Retailer","Jan 10 2017 09:12:02:000PM","Jan 10 2017 09:12:02:000PM","1330 Old Bridge Rd Woodbridge Virginia 22192",-77.2572632,38.675229
4305042,"Baker's Wrecker Svc","13011 Occoquan Rd","","Woodbridge","Prince William","Virginia",22191,"7034914209","","13011 Occoquan Rd","Woodbridge","Virginia",22191,"","Food Retailer","Jan 10 2017 09:12:03:000PM","Jan 10 2017 09:12:03:000PM","13011 Occoquan Rd Woodbridge Virginia 22191",-77.2584306,38.6691523
4305044,"Bakers Electrical Svc Inc","1330 Old Bridge Rd","","Woodbridge","Prince William","Virginia",22192,"7034948419","","1330 Old Bridge Rd","Woodbridge","Virginia",22192,"","Food Retailer","Jan 10 2017 09:12:04:000PM","Jan 10 2017 09:12:04:000PM","1330 Old Bridge Rd Woodbridge Virginia 22192",-77.2572632,38.675229
4305053,"BALD Eagle Mechanical LLC","14525 Penderlea Ct","","Gainesville","Prince William","Virginia",20155,"5712613465","http://Baldeaglemechanical.Com","14525 Penderlea Ct","Gainesville","Virginia",20155,"","Food Retailer","Jan 10 2017 09:12:05:000PM","Jan 10 2017 09:12:05:000PM","14525 Penderlea Ct Gainesville Virginia 20155",-77.63775,38.8008931
4305064,"Ballston Center Exxon","660 N Glebe Rd","","Arlington","Arlington","Virginia",22203,"7035252507","http://Exxonmobilstations.Com","660 N Glebe Rd","Arlington","Virginia",22203,"","Food Retailer","Jan 10 2017 09:12:07:000PM","Jan 10 2017 09:12:07:000PM","660 N Glebe Rd Arlington Virginia 22203",-77.1117508,38.8782436
4305066,"Ballston Place Gourmet","901 N Pollard St # 1","","Arlington","Arlington","Virginia",22203,"7035273773","","901 N Pollard St # 1","Arlington","Virginia",22203,"","Food Retailer","Jan 10 2017 09:12:07:000PM","Jan 10 2017 09:12:07:000PM","901 N Pollard St  1 Arlington Virginia 22203",-77.1063952,38.8821975
4305093,"Bangla Bazar","5149 Lee Hwy","","Arlington","Arlington","Virginia",22207,"7032417040","","5149 Lee Hwy","Arlington","Virginia",22207,"","Food Retailer","Jan 10 2017 09:12:11:000PM","Jan 10 2017 09:12:11:000PM","5149 Lee Hwy Arlington Virginia 22207",-77.1322033,38.8966282
4305248,"Bazar Dollar Market","1611 Washington Plz","","Reston","Fairfax","Virginia",20190,"5712677445","","1611 Washington Plz","Reston","Virginia",20190,"","Food Retailer","Jan 10 2017 09:12:37:000PM","Jan 10 2017 09:12:37:000PM","1611 Washington Plz Reston Virginia 20190",-77.3409223,38.9691824
4305342,"Bella Terra Trading Co","4196 Merchant Plz","","Woodbridge","Prince William","Virginia",22192,"5719693014","","4196 Merchant Plz","Woodbridge","Virginia",22192,"","Food Retailer","Jan 10 2017 09:12:51:000PM","Jan 10 2017 09:12:51:000PM","4196 Merchant Plz Woodbridge Virginia 22192",-77.3340802,38.6748726
4305365,"Belmont Bay Shell","12871 Gordon Blvd","","Woodbridge","Prince William","Virginia",22192,"7034919563","http://Shell.Com","12871 Gordon Blvd","Woodbridge","Virginia",22192,"","Food Retailer","Jan 10 2017 09:12:55:000PM","Jan 10 2017 09:12:55:000PM","12871 Gordon Blvd Woodbridge Virginia 22192",-77.2543449,38.6747055
4305428,"Beraud Marie","8043 Tysons Corner Ctr","","McLean","Fairfax","Virginia",22102,"7033568880","","8043 Tysons Corner Ctr","McLean","Virginia",22102,"","Food Retailer","Jan 10 2017 09:13:05:000PM","Jan 10 2017 09:13:05:000PM","8043 Tysons Corner Ctr McLean Virginia 22102",-77.2213773,38.9166031
4305461,"Best Buy","45575 Dulles Eastern Plz # 188","","Sterling","Loudoun","Virginia",20166,"7034302150","http://Bestbuy.Com","45575 Dulles Eastern Plz # 188","Sterling","Virginia",20166,"","Food Retailer","Jan 10 2017 09:13:10:000PM","Jan 10 2017 09:13:10:000PM","45575 Dulles Eastern Plz  188 Sterling Virginia 20166",-77.422218,39.0232743
4305468,"Best Little Cafe","13955 Metrotech Dr","","Chantilly","Fairfax","Virginia",20151,"7038170199","","13955 Metrotech Dr","Chantilly","Virginia",20151,"","Food Retailer","Jan 10 2017 09:13:11:000PM","Jan 10 2017 09:13:11:000PM","13955 Metrotech Dr Chantilly Virginia 20151",-77.4269872,38.8951322
4305477,"Bestway Supermarket","3109 Graham Rd","","Falls Church","Fairfax","Virginia",22042,"7035602101","http://Bestwaymarket.Com","3109 Graham Rd","Falls Church","Virginia",22042,"","Food Retailer","Jan 10 2017 09:13:13:000PM","Jan 10 2017 09:13:13:000PM","3109 Graham Rd Falls Church Virginia 22042",-77.1940042,38.865427
